$GPGGA,170233.691,3404.141,N,11820.632,W,1,12,1.0,0.0,M,0.0,M,,*7C
$GPGSA,A,3,01,02,03,04,05,06,07,08,09,10,11,12,1.0,1.0,1.0*30
$GPRMC,170233.691,A,3404.141,N,11820.632,W,038.9,090.0,250221,000.0,W*65
$GPGGA,170234.691,3404.141,N,11820.619,W,1,12,1.0,0.0,M,0.0,M,,*72
$GPGSA,A,3,01,02,03,04,05,06,07,08,09,10,11,12,1.0,1.0,1.0*30
$GPRMC,170234.691,A,3404.141,N,11820.619,W,038.9,090.0,250221,000.0,W*6B
$GPGGA,170235.691,3404.141,N,11820.606,W,1,12,1.0,0.0,M,0.0,M,,*7D
$GPGSA,A,3,01,02,03,04,05,06,07,08,09,10,11,12,1.0,1.0,1.0*30
$GPRMC,170235.691,A,3404.141,N,11820.606,W,038.9,090.0,250221,000.0,W*64
$GPGGA,170236.691,3404.141,N,11820.593,W,1,12,1.0,0.0,M,0.0,M,,*71
$GPGSA,A,3,01,02,03,04,05,06,07,08,09,10,11,12,1.0,1.0,1.0*30
$GPRMC,170236.691,A,3404.141,N,11820.593,W,038.9,090.0,250221,000.0,W*68
$GPGGA,170237.691,3404.141,N,11820.580,W,1,12,1.0,0.0,M,0.0,M,,*72
$GPGSA,A,3,01,02,03,04,05,06,07,08,09,10,11,12,1.0,1.0,1.0*30
$GPRMC,170237.691,A,3404.141,N,11820.580,W,038.9,090.0,250221,000.0,W*6B
$GPGGA,170238.691,3404.141,N,11820.567,W,1,12,1.0,0.0,M,0.0,M,,*74
$GPGSA,A,3,01,02,03,04,05,06,07,08,09,10,11,12,1.0,1.0,1.0*30
$GPRMC,170238.691,A,3404.141,N,11820.567,W,038.9,090.0,250221,000.0,W*6D
$GPGGA,170239.691,3404.141,N,11820.554,W,1,12,1.0,0.0,M,0.0,M,,*75
$GPGSA,A,3,01,02,03,04,05,06,07,08,09,10,11,12,1.0,1.0,1.0*30
$GPRMC,170239.691,A,3404.141,N,11820.554,W,038.9,090.0,250221,000.0,W*6C
$GPGGA,170240.691,3404.141,N,11820.541,W,1,12,1.0,0.0,M,0.0,M,,*7F
$GPGSA,A,3,01,02,03,04,05,06,07,08,09,10,11,12,1.0,1.0,1.0*30
$GPRMC,170240.691,A,3404.141,N,11820.541,W,038.9,090.0,250221,000.0,W*66
$GPGGA,170241.691,3404.141,N,11820.528,W,1,12,1.0,0.0,M,0.0,M,,*71
$GPGSA,A,3,01,02,03,04,05,06,07,08,09,10,11,12,1.0,1.0,1.0*30
$GPRMC,170241.691,A,3404.141,N,11820.528,W,038.9,090.0,250221,000.0,W*68
$GPGGA,170242.691,3404.141,N,11820.515,W,1,12,1.0,0.0,M,0.0,M,,*7C
$GPGSA,A,3,01,02,03,04,05,06,07,08,09,10,11,12,1.0,1.0,1.0*30
$GPRMC,170242.691,A,3404.141,N,11820.515,W,038.9,090.0,250221,000.0,W*65
$GPGGA,170243.691,3404.141,N,11820.502,W,1,12,1.0,0.0,M,0.0,M,,*7B
$GPGSA,A,3,01,02,03,04,05,06,07,08,09,10,11,12,1.0,1.0,1.0*30
$GPRMC,170243.691,A,3404.141,N,11820.502,W,038.9,090.0,250221,000.0,W*62
$GPGGA,170244.691,3404.141,N,11820.489,W,1,12,1.0,0.0,M,0.0,M,,*7E
$GPGSA,A,3,01,02,03,04,05,06,07,08,09,10,11,12,1.0,1.0,1.0*30
$GPRMC,170244.691,A,3404.141,N,11820.489,W,038.9,090.0,250221,000.0,W*67
$GPGGA,170245.691,3404.141,N,11820.476,W,1,12,1.0,0.0,M,0.0,M,,*7F
$GPGSA,A,3,01,02,03,04,05,06,07,08,09,10,11,12,1.0,1.0,1.0*30
$GPRMC,170245.691,A,3404.141,N,11820.476,W,038.9,090.0,250221,000.0,W*66
$GPGGA,170246.691,3404.141,N,11820.463,W,1,12,1.0,0.0,M,0.0,M,,*78
$GPGSA,A,3,01,02,03,04,05,06,07,08,09,10,11,12,1.0,1.0,1.0*30
$GPRMC,170246.691,A,3404.141,N,11820.463,W,038.9,090.0,250221,000.0,W*61
$GPGGA,170247.691,3404.141,N,11820.450,W,1,12,1.0,0.0,M,0.0,M,,*79
$GPGSA,A,3,01,02,03,04,05,06,07,08,09,10,11,12,1.0,1.0,1.0*30
$GPRMC,170247.691,A,3404.141,N,11820.450,W,038.9,090.0,250221,000.0,W*60
$GPGGA,170248.691,3404.141,N,11820.437,W,1,12,1.0,0.0,M,0.0,M,,*77
$GPGSA,A,3,01,02,03,04,05,06,07,08,09,10,11,12,1.0,1.0,1.0*30
$GPRMC,170248.691,A,3404.141,N,11820.437,W,038.9,090.0,250221,000.0,W*6E
$GPGGA,170249.691,3404.141,N,11820.424,W,1,12,1.0,0.0,M,0.0,M,,*74
$GPGSA,A,3,01,02,03,04,05,06,07,08,09,10,11,12,1.0,1.0,1.0*30
$GPRMC,170249.691,A,3404.141,N,11820.424,W,038.9,090.0,250221,000.0,W*6D
$GPGGA,170250.691,3404.141,N,11820.411,W,1,12,1.0,0.0,M,0.0,M,,*7A
$GPGSA,A,3,01,02,03,04,05,06,07,08,09,10,11,12,1.0,1.0,1.0*30
$GPRMC,170250.691,A,3404.141,N,11820.411,W,038.9,090.0,250221,000.0,W*63
$GPGGA,170251.691,3404.141,N,11820.398,W,1,12,1.0,0.0,M,0.0,M,,*7D
$GPGSA,A,3,01,02,03,04,05,06,07,08,09,10,11,12,1.0,1.0,1.0*30
$GPRMC,170251.691,A,3404.141,N,11820.398,W,038.9,090.0,250221,000.0,W*64
$GPGGA,170252.691,3404.141,N,11820.385,W,1,12,1.0,0.0,M,0.0,M,,*72
$GPGSA,A,3,01,02,03,04,05,06,07,08,09,10,11,12,1.0,1.0,1.0*30
$GPRMC,170252.691,A,3404.141,N,11820.385,W,038.9,090.0,250221,000.0,W*6B
$GPGGA,170253.691,3404.141,N,11820.372,W,1,12,1.0,0.0,M,0.0,M,,*7B
$GPGSA,A,3,01,02,03,04,05,06,07,08,09,10,11,12,1.0,1.0,1.0*30
$GPRMC,170253.691,A,3404.141,N,11820.372,W,038.9,090.0,250221,000.0,W*62
$GPGGA,170254.691,3404.141,N,11820.359,W,1,12,1.0,0.0,M,0.0,M,,*75
$GPGSA,A,3,01,02,03,04,05,06,07,08,09,10,11,12,1.0,1.0,1.0*30
$GPRMC,170254.691,A,3404.141,N,11820.359,W,038.9,090.0,250221,000.0,W*6C
$GPGGA,170255.691,3404.141,N,11820.345,W,1,12,1.0,0.0,M,0.0,M,,*79
$GPGSA,A,3,01,02,03,04,05,06,07,08,09,10,11,12,1.0,1.0,1.0*30
$GPRMC,170255.691,A,3404.141,N,11820.345,W,038.9,090.0,250221,000.0,W*60
$GPGGA,170256.691,3404.141,N,11820.332,W,1,12,1.0,0.0,M,0.0,M,,*7A
$GPGSA,A,3,01,02,03,04,05,06,07,08,09,10,11,12,1.0,1.0,1.0*30
$GPRMC,170256.691,A,3404.141,N,11820.332,W,038.9,090.0,250221,000.0,W*63
$GPGGA,170257.691,3404.141,N,11820.319,W,1,12,1.0,0.0,M,0.0,M,,*72
$GPGSA,A,3,01,02,03,04,05,06,07,08,09,10,11,12,1.0,1.0,1.0*30
$GPRMC,170257.691,A,3404.141,N,11820.319,W,038.9,090.0,250221,000.0,W*6B
$GPGGA,170258.691,3404.141,N,11820.306,W,1,12,1.0,0.0,M,0.0,M,,*73
$GPGSA,A,3,01,02,03,04,05,06,07,08,09,10,11,12,1.0,1.0,1.0*30
$GPRMC,170258.691,A,3404.141,N,11820.306,W,038.9,090.0,250221,000.0,W*6A
$GPGGA,170259.691,3404.141,N,11820.293,W,1,12,1.0,0.0,M,0.0,M,,*7F
$GPGSA,A,3,01,02,03,04,05,06,07,08,09,10,11,12,1.0,1.0,1.0*30
$GPRMC,170259.691,A,3404.141,N,11820.293,W,038.9,090.0,250221,000.0,W*66
$GPGGA,170300.691,3404.141,N,11820.280,W,1,12,1.0,0.0,M,0.0,M,,*70
$GPGSA,A,3,01,02,03,04,05,06,07,08,09,10,11,12,1.0,1.0,1.0*30
$GPRMC,170300.691,A,3404.141,N,11820.280,W,038.9,090.0,250221,000.0,W*69
$GPGGA,170301.691,3404.141,N,11820.267,W,1,12,1.0,0.0,M,0.0,M,,*78
$GPGSA,A,3,01,02,03,04,05,06,07,08,09,10,11,12,1.0,1.0,1.0*30
$GPRMC,170301.691,A,3404.141,N,11820.267,W,038.9,090.0,250221,000.0,W*61
$GPGGA,170302.691,3404.141,N,11820.254,W,1,12,1.0,0.0,M,0.0,M,,*7B
$GPGSA,A,3,01,02,03,04,05,06,07,08,09,10,11,12,1.0,1.0,1.0*30
$GPRMC,170302.691,A,3404.141,N,11820.254,W,038.9,090.0,250221,000.0,W*62
$GPGGA,170303.691,3404.141,N,11820.241,W,1,12,1.0,0.0,M,0.0,M,,*7E
$GPGSA,A,3,01,02,03,04,05,06,07,08,09,10,11,12,1.0,1.0,1.0*30
$GPRMC,170303.691,A,3404.141,N,11820.241,W,038.9,090.0,250221,000.0,W*67
$GPGGA,170304.691,3404.141,N,11820.228,W,1,12,1.0,0.0,M,0.0,M,,*76
$GPGSA,A,3,01,02,03,04,05,06,07,08,09,10,11,12,1.0,1.0,1.0*30
$GPRMC,170304.691,A,3404.141,N,11820.228,W,038.9,090.0,250221,000.0,W*6F
$GPGGA,170305.691,3404.141,N,11820.215,W,1,12,1.0,0.0,M,0.0,M,,*79
$GPGSA,A,3,01,02,03,04,05,06,07,08,09,10,11,12,1.0,1.0,1.0*30
$GPRMC,170305.691,A,3404.141,N,11820.215,W,038.9,090.0,250221,000.0,W*60
$GPGGA,170306.691,3404.141,N,11820.202,W,1,12,1.0,0.0,M,0.0,M,,*7C
$GPGSA,A,3,01,02,03,04,05,06,07,08,09,10,11,12,1.0,1.0,1.0*30
$GPRMC,170306.691,A,3404.141,N,11820.202,W,038.9,090.0,250221,000.0,W*65
$GPGGA,170307.691,3404.141,N,11820.189,W,1,12,1.0,0.0,M,0.0,M,,*7D
$GPGSA,A,3,01,02,03,04,05,06,07,08,09,10,11,12,1.0,1.0,1.0*30
$GPRMC,170307.691,A,3404.141,N,11820.189,W,038.9,090.0,250221,000.0,W*64
$GPGGA,170308.691,3404.141,N,11820.176,W,1,12,1.0,0.0,M,0.0,M,,*72
$GPGSA,A,3,01,02,03,04,05,06,07,08,09,10,11,12,1.0,1.0,1.0*30
$GPRMC,170308.691,A,3404.141,N,11820.176,W,038.9,090.0,250221,000.0,W*6B
$GPGGA,170309.691,3404.141,N,11820.163,W,1,12,1.0,0.0,M,0.0,M,,*77
$GPGSA,A,3,01,02,03,04,05,06,07,08,09,10,11,12,1.0,1.0,1.0*30
$GPRMC,170309.691,A,3404.141,N,11820.163,W,038.9,090.0,250221,000.0,W*6E
$GPGGA,170310.691,3404.141,N,11820.150,W,1,12,1.0,0.0,M,0.0,M,,*7F
$GPGSA,A,3,01,02,03,04,05,06,07,08,09,10,11,12,1.0,1.0,1.0*30
$GPRMC,170310.691,A,3404.141,N,11820.150,W,038.9,090.0,250221,000.0,W*66
$GPGGA,170311.691,3404.141,N,11820.137,W,1,12,1.0,0.0,M,0.0,M,,*7F
$GPGSA,A,3,01,02,03,04,05,06,07,08,09,10,11,12,1.0,1.0,1.0*30
$GPRMC,170311.691,A,3404.141,N,11820.137,W,038.9,090.0,250221,000.0,W*66
$GPGGA,170312.691,3404.141,N,11820.124,W,1,12,1.0,0.0,M,0.0,M,,*7E
$GPGSA,A,3,01,02,03,04,05,06,07,08,09,10,11,12,1.0,1.0,1.0*30
$GPRMC,170312.691,A,3404.141,N,11820.124,W,038.9,090.0,250221,000.0,W*67
$GPGGA,170313.691,3404.141,N,11820.111,W,1,12,1.0,0.0,M,0.0,M,,*79
$GPGSA,A,3,01,02,03,04,05,06,07,08,09,10,11,12,1.0,1.0,1.0*30
$GPRMC,170313.691,A,3404.141,N,11820.111,W,038.9,090.0,250221,000.0,W*60
$GPGGA,170314.691,3404.141,N,11820.098,W,1,12,1.0,0.0,M,0.0,M,,*7E
$GPGSA,A,3,01,02,03,04,05,06,07,08,09,10,11,12,1.0,1.0,1.0*30
$GPRMC,170314.691,A,3404.141,N,11820.098,W,038.9,090.0,250221,000.0,W*67
$GPGGA,170315.691,3404.141,N,11820.085,W,1,12,1.0,0.0,M,0.0,M,,*73
$GPGSA,A,3,01,02,03,04,05,06,07,08,09,10,11,12,1.0,1.0,1.0*30
$GPRMC,170315.691,A,3404.141,N,11820.085,W,038.9,090.0,250221,000.0,W*6A
$GPGGA,170316.691,3404.141,N,11820.072,W,1,12,1.0,0.0,M,0.0,M,,*78
$GPGSA,A,3,01,02,03,04,05,06,07,08,09,10,11,12,1.0,1.0,1.0*30
$GPRMC,170316.691,A,3404.141,N,11820.072,W,038.9,090.0,250221,000.0,W*61
$GPGGA,170317.691,3404.141,N,11820.059,W,1,12,1.0,0.0,M,0.0,M,,*70
$GPGSA,A,3,01,02,03,04,05,06,07,08,09,10,11,12,1.0,1.0,1.0*30
$GPRMC,170317.691,A,3404.141,N,11820.059,W,038.9,090.0,250221,000.0,W*69
$GPGGA,170318.691,3404.141,N,11820.046,W,1,12,1.0,0.0,M,0.0,M,,*71
$GPGSA,A,3,01,02,03,04,05,06,07,08,09,10,11,12,1.0,1.0,1.0*30
$GPRMC,170318.691,A,3404.141,N,11820.046,W,038.9,090.0,250221,000.0,W*68
$GPGGA,170319.691,3404.141,N,11820.033,W,1,12,1.0,0.0,M,0.0,M,,*72
$GPGSA,A,3,01,02,03,04,05,06,07,08,09,10,11,12,1.0,1.0,1.0*30
$GPRMC,170319.691,A,3404.141,N,11820.033,W,038.9,090.0,250221,000.0,W*6B
$GPGGA,170320.691,3404.141,N,11820.020,W,1,12,1.0,0.0,M,0.0,M,,*7A
$GPGSA,A,3,01,02,03,04,05,06,07,08,09,10,11,12,1.0,1.0,1.0*30
$GPRMC,170320.691,A,3404.141,N,11820.020,W,038.9,090.0,250221,000.0,W*63
$GPGGA,170321.691,3404.141,N,11820.007,W,1,12,1.0,0.0,M,0.0,M,,*7E
$GPGSA,A,3,01,02,03,04,05,06,07,08,09,10,11,12,1.0,1.0,1.0*30
$GPRMC,170321.691,A,3404.141,N,11820.007,W,038.9,090.0,250221,000.0,W*67
$GPGGA,170322.691,3404.141,N,11819.994,W,1,12,1.0,0.0,M,0.0,M,,*74
$GPGSA,A,3,01,02,03,04,05,06,07,08,09,10,11,12,1.0,1.0,1.0*30
$GPRMC,170322.691,A,3404.141,N,11819.994,W,038.9,090.0,250221,000.0,W*6D
$GPGGA,170323.691,3404.141,N,11819.981,W,1,12,1.0,0.0,M,0.0,M,,*71
$GPGSA,A,3,01,02,03,04,05,06,07,08,09,10,11,12,1.0,1.0,1.0*30
$GPRMC,170323.691,A,3404.141,N,11819.981,W,038.9,090.0,250221,000.0,W*68
$GPGGA,170324.691,3404.141,N,11819.968,W,1,12,1.0,0.0,M,0.0,M,,*71
$GPGSA,A,3,01,02,03,04,05,06,07,08,09,10,11,12,1.0,1.0,1.0*30
$GPRMC,170324.691,A,3404.141,N,11819.968,W,038.9,090.0,250221,000.0,W*68
$GPGGA,170325.691,3404.141,N,11819.955,W,1,12,1.0,0.0,M,0.0,M,,*7E
$GPGSA,A,3,01,02,03,04,05,06,07,08,09,10,11,12,1.0,1.0,1.0*30
$GPRMC,170325.691,A,3404.141,N,11819.955,W,038.9,090.0,250221,000.0,W*67
$GPGGA,170326.691,3404.141,N,11819.942,W,1,12,1.0,0.0,M,0.0,M,,*7B
$GPGSA,A,3,01,02,03,04,05,06,07,08,09,10,11,12,1.0,1.0,1.0*30
$GPRMC,170326.691,A,3404.141,N,11819.942,W,038.9,090.0,250221,000.0,W*62
$GPGGA,170327.691,3404.141,N,11819.929,W,1,12,1.0,0.0,M,0.0,M,,*77
$GPGSA,A,3,01,02,03,04,05,06,07,08,09,10,11,12,1.0,1.0,1.0*30
$GPRMC,170327.691,A,3404.141,N,11819.929,W,038.9,090.0,250221,000.0,W*6E
$GPGGA,170328.691,3404.141,N,11819.916,W,1,12,1.0,0.0,M,0.0,M,,*74
$GPGSA,A,3,01,02,03,04,05,06,07,08,09,10,11,12,1.0,1.0,1.0*30
$GPRMC,170328.691,A,3404.141,N,11819.916,W,038.9,090.0,250221,000.0,W*6D
$GPGGA,170329.691,3404.141,N,11819.903,W,1,12,1.0,0.0,M,0.0,M,,*71
$GPGSA,A,3,01,02,03,04,05,06,07,08,09,10,11,12,1.0,1.0,1.0*30
$GPRMC,170329.691,A,3404.141,N,11819.903,W,038.9,090.0,250221,000.0,W*68
$GPGGA,170330.691,3404.141,N,11819.890,W,1,12,1.0,0.0,M,0.0,M,,*72
$GPGSA,A,3,01,02,03,04,05,06,07,08,09,10,11,12,1.0,1.0,1.0*30
$GPRMC,170330.691,A,3404.141,N,11819.890,W,038.9,090.0,250221,000.0,W*6B
$GPGGA,170331.691,3404.141,N,11819.876,W,1,12,1.0,0.0,M,0.0,M,,*7B
$GPGSA,A,3,01,02,03,04,05,06,07,08,09,10,11,12,1.0,1.0,1.0*30
$GPRMC,170331.691,A,3404.141,N,11819.876,W,038.9,090.0,250221,000.0,W*62
$GPGGA,170332.691,3404.141,N,11819.863,W,1,12,1.0,0.0,M,0.0,M,,*7C
$GPGSA,A,3,01,02,03,04,05,06,07,08,09,10,11,12,1.0,1.0,1.0*30
$GPRMC,170332.691,A,3404.141,N,11819.863,W,038.9,090.0,250221,000.0,W*65
$GPGGA,170333.691,3404.141,N,11819.850,W,1,12,1.0,0.0,M,0.0,M,,*7D
$GPGSA,A,3,01,02,03,04,05,06,07,08,09,10,11,12,1.0,1.0,1.0*30
$GPRMC,170333.691,A,3404.141,N,11819.850,W,038.9,090.0,250221,000.0,W*64
$GPGGA,170334.691,3404.141,N,11819.837,W,1,12,1.0,0.0,M,0.0,M,,*7B
$GPGSA,A,3,01,02,03,04,05,06,07,08,09,10,11,12,1.0,1.0,1.0*30
$GPRMC,170334.691,A,3404.141,N,11819.837,W,038.9,090.0,250221,000.0,W*62
$GPGGA,170335.691,3404.141,N,11819.824,W,1,12,1.0,0.0,M,0.0,M,,*78
$GPGSA,A,3,01,02,03,04,05,06,07,08,09,10,11,12,1.0,1.0,1.0*30
$GPRMC,170335.691,A,3404.141,N,11819.824,W,038.9,090.0,250221,000.0,W*61
$GPGGA,170336.691,3404.141,N,11819.811,W,1,12,1.0,0.0,M,0.0,M,,*7D
$GPGSA,A,3,01,02,03,04,05,06,07,08,09,10,11,12,1.0,1.0,1.0*30
$GPRMC,170336.691,A,3404.141,N,11819.811,W,038.9,090.0,250221,000.0,W*64
$GPGGA,170337.691,3404.141,N,11819.798,W,1,12,1.0,0.0,M,0.0,M,,*72
$GPGSA,A,3,01,02,03,04,05,06,07,08,09,10,11,12,1.0,1.0,1.0*30
$GPRMC,170337.691,A,3404.141,N,11819.798,W,038.9,090.0,250221,000.0,W*6B
$GPGGA,170338.691,3404.141,N,11819.785,W,1,12,1.0,0.0,M,0.0,M,,*71
$GPGSA,A,3,01,02,03,04,05,06,07,08,09,10,11,12,1.0,1.0,1.0*30
$GPRMC,170338.691,A,3404.141,N,11819.785,W,038.9,090.0,250221,000.0,W*68
$GPGGA,170339.691,3404.141,N,11819.772,W,1,12,1.0,0.0,M,0.0,M,,*78
$GPGSA,A,3,01,02,03,04,05,06,07,08,09,10,11,12,1.0,1.0,1.0*30
$GPRMC,170339.691,A,3404.141,N,11819.772,W,038.9,090.0,250221,000.0,W*61
$GPGGA,170340.691,3404.141,N,11819.759,W,1,12,1.0,0.0,M,0.0,M,,*7F
$GPGSA,A,3,01,02,03,04,05,06,07,08,09,10,11,12,1.0,1.0,1.0*30
$GPRMC,170340.691,A,3404.141,N,11819.759,W,038.9,090.0,250221,000.0,W*66
$GPGGA,170341.691,3404.141,N,11819.746,W,1,12,1.0,0.0,M,0.0,M,,*70
$GPGSA,A,3,01,02,03,04,05,06,07,08,09,10,11,12,1.0,1.0,1.0*30
$GPRMC,170341.691,A,3404.141,N,11819.746,W,038.9,090.0,250221,000.0,W*69
$GPGGA,170342.691,3404.141,N,11819.733,W,1,12,1.0,0.0,M,0.0,M,,*71
$GPGSA,A,3,01,02,03,04,05,06,07,08,09,10,11,12,1.0,1.0,1.0*30
$GPRMC,170342.691,A,3404.141,N,11819.733,W,038.9,090.0,250221,000.0,W*68
$GPGGA,170343.691,3404.141,N,11819.720,W,1,12,1.0,0.0,M,0.0,M,,*72
$GPGSA,A,3,01,02,03,04,05,06,07,08,09,10,11,12,1.0,1.0,1.0*30
$GPRMC,170343.691,A,3404.141,N,11819.720,W,038.9,090.0,250221,000.0,W*6B
$GPGGA,170344.691,3404.141,N,11819.707,W,1,12,1.0,0.0,M,0.0,M,,*70
$GPGSA,A,3,01,02,03,04,05,06,07,08,09,10,11,12,1.0,1.0,1.0*30
$GPRMC,170344.691,A,3404.141,N,11819.707,W,038.9,090.0,250221,000.0,W*69
$GPGGA,170345.691,3404.141,N,11819.694,W,1,12,1.0,0.0,M,0.0,M,,*7A
$GPGSA,A,3,01,02,03,04,05,06,07,08,09,10,11,12,1.0,1.0,1.0*30
$GPRMC,170345.691,A,3404.141,N,11819.694,W,038.9,090.0,250221,000.0,W*63
$GPGGA,170346.691,3404.141,N,11819.681,W,1,12,1.0,0.0,M,0.0,M,,*7D
$GPGSA,A,3,01,02,03,04,05,06,07,08,09,10,11,12,1.0,1.0,1.0*30
$GPRMC,170346.691,A,3404.141,N,11819.681,W,038.9,090.0,250221,000.0,W*64
$GPGGA,170347.691,3404.141,N,11819.668,W,1,12,1.0,0.0,M,0.0,M,,*7B
$GPGSA,A,3,01,02,03,04,05,06,07,08,09,10,11,12,1.0,1.0,1.0*30
$GPRMC,170347.691,A,3404.141,N,11819.668,W,038.9,090.0,250221,000.0,W*62
$GPGGA,170348.691,3404.141,N,11819.655,W,1,12,1.0,0.0,M,0.0,M,,*7A
$GPGSA,A,3,01,02,03,04,05,06,07,08,09,10,11,12,1.0,1.0,1.0*30
$GPRMC,170348.691,A,3404.141,N,11819.655,W,038.9,090.0,250221,000.0,W*63
$GPGGA,170349.691,3404.141,N,11819.642,W,1,12,1.0,0.0,M,0.0,M,,*7D
$GPGSA,A,3,01,02,03,04,05,06,07,08,09,10,11,12,1.0,1.0,1.0*30
$GPRMC,170349.691,A,3404.141,N,11819.642,W,038.9,090.0,250221,000.0,W*64
$GPGGA,170350.691,3404.141,N,11819.629,W,1,12,1.0,0.0,M,0.0,M,,*78
$GPGSA,A,3,01,02,03,04,05,06,07,08,09,10,11,12,1.0,1.0,1.0*30
$GPRMC,170350.691,A,3404.141,N,11819.629,W,038.9,090.0,250221,000.0,W*61
$GPGGA,170351.691,3404.141,N,11819.616,W,1,12,1.0,0.0,M,0.0,M,,*75
$GPGSA,A,3,01,02,03,04,05,06,07,08,09,10,11,12,1.0,1.0,1.0*30
$GPRMC,170351.691,A,3404.141,N,11819.616,W,038.9,090.0,250221,000.0,W*6C
$GPGGA,170352.691,3404.141,N,11819.603,W,1,12,1.0,0.0,M,0.0,M,,*72
$GPGSA,A,3,01,02,03,04,05,06,07,08,09,10,11,12,1.0,1.0,1.0*30
$GPRMC,170352.691,A,3404.141,N,11819.603,W,038.9,090.0,250221,000.0,W*6B
$GPGGA,170353.691,3404.141,N,11819.590,W,1,12,1.0,0.0,M,0.0,M,,*7A
$GPGSA,A,3,01,02,03,04,05,06,07,08,09,10,11,12,1.0,1.0,1.0*30
$GPRMC,170353.691,A,3404.141,N,11819.590,W,038.9,090.0,250221,000.0,W*63
$GPGGA,170354.691,3404.141,N,11819.577,W,1,12,1.0,0.0,M,0.0,M,,*74
$GPGSA,A,3,01,02,03,04,05,06,07,08,09,10,11,12,1.0,1.0,1.0*30
$GPRMC,170354.691,A,3404.141,N,11819.577,W,038.9,090.0,250221,000.0,W*6D
$GPGGA,170355.691,3404.141,N,11819.564,W,1,12,1.0,0.0,M,0.0,M,,*77
$GPGSA,A,3,01,02,03,04,05,06,07,08,09,10,11,12,1.0,1.0,1.0*30
$GPRMC,170355.691,A,3404.141,N,11819.564,W,038.9,090.0,250221,000.0,W*6E
$GPGGA,170356.691,3404.141,N,11819.551,W,1,12,1.0,0.0,M,0.0,M,,*72
$GPGSA,A,3,01,02,03,04,05,06,07,08,09,10,11,12,1.0,1.0,1.0*30
$GPRMC,170356.691,A,3404.141,N,11819.551,W,038.9,090.0,250221,000.0,W*6B
$GPGGA,170357.691,3404.141,N,11819.538,W,1,12,1.0,0.0,M,0.0,M,,*7C
$GPGSA,A,3,01,02,03,04,05,06,07,08,09,10,11,12,1.0,1.0,1.0*30
$GPRMC,170357.691,A,3404.141,N,11819.538,W,038.9,090.0,250221,000.0,W*65
$GPGGA,170358.691,3404.141,N,11819.525,W,1,12,1.0,0.0,M,0.0,M,,*7F
$GPGSA,A,3,01,02,03,04,05,06,07,08,09,10,11,12,1.0,1.0,1.0*30
$GPRMC,170358.691,A,3404.141,N,11819.525,W,038.9,090.0,250221,000.0,W*66
$GPGGA,170359.691,3404.141,N,11819.512,W,1,12,1.0,0.0,M,0.0,M,,*7A
$GPGSA,A,3,01,02,03,04,05,06,07,08,09,10,11,12,1.0,1.0,1.0*30
$GPRMC,170359.691,A,3404.141,N,11819.512,W,038.9,090.0,250221,000.0,W*63
$GPGGA,170400.691,3404.141,N,11819.499,W,1,12,1.0,0.0,M,0.0,M,,*73
$GPGSA,A,3,01,02,03,04,05,06,07,08,09,10,11,12,1.0,1.0,1.0*30
$GPRMC,170400.691,A,3404.141,N,11819.499,W,038.9,090.0,250221,000.0,W*6A
$GPGGA,170401.691,3404.141,N,11819.486,W,1,12,1.0,0.0,M,0.0,M,,*7C
$GPGSA,A,3,01,02,03,04,05,06,07,08,09,10,11,12,1.0,1.0,1.0*30
$GPRMC,170401.691,A,3404.141,N,11819.486,W,038.9,090.0,250221,000.0,W*65
$GPGGA,170402.691,3404.141,N,11819.473,W,1,12,1.0,0.0,M,0.0,M,,*75
$GPGSA,A,3,01,02,03,04,05,06,07,08,09,10,11,12,1.0,1.0,1.0*30
$GPRMC,170402.691,A,3404.141,N,11819.473,W,038.9,090.0,250221,000.0,W*6C
$GPGGA,170403.691,3404.141,N,11819.460,W,1,12,1.0,0.0,M,0.0,M,,*76
$GPGSA,A,3,01,02,03,04,05,06,07,08,09,10,11,12,1.0,1.0,1.0*30
$GPRMC,170403.691,A,3404.141,N,11819.460,W,038.9,090.0,250221,000.0,W*6F
$GPGGA,170404.691,3404.141,N,11819.447,W,1,12,1.0,0.0,M,0.0,M,,*74
$GPGSA,A,3,01,02,03,04,05,06,07,08,09,10,11,12,1.0,1.0,1.0*30
$GPRMC,170404.691,A,3404.141,N,11819.447,W,038.9,090.0,250221,000.0,W*6D
$GPGGA,170405.691,3404.141,N,11819.434,W,1,12,1.0,0.0,M,0.0,M,,*71
$GPGSA,A,3,01,02,03,04,05,06,07,08,09,10,11,12,1.0,1.0,1.0*30
$GPRMC,170405.691,A,3404.141,N,11819.434,W,038.9,090.0,250221,000.0,W*68
$GPGGA,170406.691,3404.141,N,11819.420,W,1,12,1.0,0.0,M,0.0,M,,*77
$GPGSA,A,3,01,02,03,04,05,06,07,08,09,10,11,12,1.0,1.0,1.0*30
$GPRMC,170406.691,A,3404.141,N,11819.420,W,038.9,090.0,250221,000.0,W*6E
$GPGGA,170407.691,3404.141,N,11819.407,W,1,12,1.0,0.0,M,0.0,M,,*73
$GPGSA,A,3,01,02,03,04,05,06,07,08,09,10,11,12,1.0,1.0,1.0*30
$GPRMC,170407.691,A,3404.141,N,11819.407,W,038.9,090.0,250221,000.0,W*6A
$GPGGA,170408.691,3404.141,N,11819.394,W,1,12,1.0,0.0,M,0.0,M,,*71
$GPGSA,A,3,01,02,03,04,05,06,07,08,09,10,11,12,1.0,1.0,1.0*30
$GPRMC,170408.691,A,3404.141,N,11819.394,W,038.9,090.0,250221,000.0,W*68
$GPGGA,170409.691,3404.141,N,11819.381,W,1,12,1.0,0.0,M,0.0,M,,*74
$GPGSA,A,3,01,02,03,04,05,06,07,08,09,10,11,12,1.0,1.0,1.0*30
$GPRMC,170409.691,A,3404.141,N,11819.381,W,038.9,090.0,250221,000.0,W*6D
$GPGGA,170410.691,3404.141,N,11819.368,W,1,12,1.0,0.0,M,0.0,M,,*7B
$GPGSA,A,3,01,02,03,04,05,06,07,08,09,10,11,12,1.0,1.0,1.0*30
$GPRMC,170410.691,A,3404.141,N,11819.368,W,038.9,090.0,250221,000.0,W*62
$GPGGA,170411.691,3404.141,N,11819.355,W,1,12,1.0,0.0,M,0.0,M,,*74
$GPGSA,A,3,01,02,03,04,05,06,07,08,09,10,11,12,1.0,1.0,1.0*30
$GPRMC,170411.691,A,3404.141,N,11819.355,W,038.9,090.0,250221,000.0,W*6D
$GPGGA,170412.691,3404.141,N,11819.342,W,1,12,1.0,0.0,M,0.0,M,,*71
$GPGSA,A,3,01,02,03,04,05,06,07,08,09,10,11,12,1.0,1.0,1.0*30
$GPRMC,170412.691,A,3404.141,N,11819.342,W,038.9,090.0,250221,000.0,W*68
$GPGGA,170413.691,3404.141,N,11819.329,W,1,12,1.0,0.0,M,0.0,M,,*7D
$GPGSA,A,3,01,02,03,04,05,06,07,08,09,10,11,12,1.0,1.0,1.0*30
$GPRMC,170413.691,A,3404.141,N,11819.329,W,038.9,090.0,250221,000.0,W*64
$GPGGA,170414.691,3404.141,N,11819.316,W,1,12,1.0,0.0,M,0.0,M,,*76
$GPGSA,A,3,01,02,03,04,05,06,07,08,09,10,11,12,1.0,1.0,1.0*30
$GPRMC,170414.691,A,3404.141,N,11819.316,W,038.9,090.0,250221,000.0,W*6F
$GPGGA,170415.691,3404.141,N,11819.303,W,1,12,1.0,0.0,M,0.0,M,,*73
$GPGSA,A,3,01,02,03,04,05,06,07,08,09,10,11,12,1.0,1.0,1.0*30
$GPRMC,170415.691,A,3404.141,N,11819.303,W,038.9,090.0,250221,000.0,W*6A
$GPGGA,170416.691,3404.141,N,11819.290,W,1,12,1.0,0.0,M,0.0,M,,*7B
$GPGSA,A,3,01,02,03,04,05,06,07,08,09,10,11,12,1.0,1.0,1.0*30
$GPRMC,170416.691,A,3404.141,N,11819.290,W,038.9,090.0,250221,000.0,W*62
$GPGGA,170417.691,3404.141,N,11819.277,W,1,12,1.0,0.0,M,0.0,M,,*73
$GPGSA,A,3,01,02,03,04,05,06,07,08,09,10,11,12,1.0,1.0,1.0*30
$GPRMC,170417.691,A,3404.141,N,11819.277,W,038.9,090.0,250221,000.0,W*6A
$GPGGA,170418.691,3404.141,N,11819.264,W,1,12,1.0,0.0,M,0.0,M,,*7E
$GPGSA,A,3,01,02,03,04,05,06,07,08,09,10,11,12,1.0,1.0,1.0*30
$GPRMC,170418.691,A,3404.141,N,11819.264,W,038.9,090.0,250221,000.0,W*67
$GPGGA,170419.691,3404.141,N,11819.251,W,1,12,1.0,0.0,M,0.0,M,,*79
$GPGSA,A,3,01,02,03,04,05,06,07,08,09,10,11,12,1.0,1.0,1.0*30
$GPRMC,170419.691,A,3404.141,N,11819.251,W,038.9,090.0,250221,000.0,W*60
$GPGGA,170420.691,3404.141,N,11819.238,W,1,12,1.0,0.0,M,0.0,M,,*7C
$GPGSA,A,3,01,02,03,04,05,06,07,08,09,10,11,12,1.0,1.0,1.0*30
$GPRMC,170420.691,A,3404.141,N,11819.238,W,038.9,090.0,250221,000.0,W*65
$GPGGA,170421.691,3404.141,N,11819.225,W,1,12,1.0,0.0,M,0.0,M,,*71
$GPGSA,A,3,01,02,03,04,05,06,07,08,09,10,11,12,1.0,1.0,1.0*30
$GPRMC,170421.691,A,3404.141,N,11819.225,W,038.9,090.0,250221,000.0,W*68
$GPGGA,170422.691,3404.141,N,11819.212,W,1,12,1.0,0.0,M,0.0,M,,*76
$GPGSA,A,3,01,02,03,04,05,06,07,08,09,10,11,12,1.0,1.0,1.0*30
$GPRMC,170422.691,A,3404.141,N,11819.212,W,038.9,090.0,250221,000.0,W*6F
$GPGGA,170423.691,3404.141,N,11819.199,W,1,12,1.0,0.0,M,0.0,M,,*77
$GPGSA,A,3,01,02,03,04,05,06,07,08,09,10,11,12,1.0,1.0,1.0*30
$GPRMC,170423.691,A,3404.141,N,11819.199,W,038.9,090.0,250221,000.0,W*6E
$GPGGA,170424.691,3404.141,N,11819.186,W,1,12,1.0,0.0,M,0.0,M,,*7E
$GPGSA,A,3,01,02,03,04,05,06,07,08,09,10,11,12,1.0,1.0,1.0*30
$GPRMC,170424.691,A,3404.141,N,11819.186,W,038.9,090.0,250221,000.0,W*67
$GPGGA,170425.691,3404.141,N,11819.173,W,1,12,1.0,0.0,M,0.0,M,,*75
$GPGSA,A,3,01,02,03,04,05,06,07,08,09,10,11,12,1.0,1.0,1.0*30
$GPRMC,170425.691,A,3404.141,N,11819.173,W,038.9,090.0,250221,000.0,W*6C
$GPGGA,170426.691,3404.141,N,11819.160,W,1,12,1.0,0.0,M,0.0,M,,*74
$GPGSA,A,3,01,02,03,04,05,06,07,08,09,10,11,12,1.0,1.0,1.0*30
$GPRMC,170426.691,A,3404.141,N,11819.160,W,038.9,090.0,250221,000.0,W*6D
$GPGGA,170427.691,3404.141,N,11819.147,W,1,12,1.0,0.0,M,0.0,M,,*70
$GPGSA,A,3,01,02,03,04,05,06,07,08,09,10,11,12,1.0,1.0,1.0*30
$GPRMC,170427.691,A,3404.141,N,11819.147,W,038.9,090.0,250221,000.0,W*69
$GPGGA,170428.691,3404.141,N,11819.134,W,1,12,1.0,0.0,M,0.0,M,,*7B
$GPGSA,A,3,01,02,03,04,05,06,07,08,09,10,11,12,1.0,1.0,1.0*30
$GPRMC,170428.691,A,3404.141,N,11819.134,W,038.9,090.0,250221,000.0,W*62
$GPGGA,170429.691,3404.141,N,11819.121,W,1,12,1.0,0.0,M,0.0,M,,*7E
$GPGSA,A,3,01,02,03,04,05,06,07,08,09,10,11,12,1.0,1.0,1.0*30
$GPRMC,170429.691,A,3404.141,N,11819.121,W,038.9,090.0,250221,000.0,W*67
$GPGGA,170430.691,3404.141,N,11819.108,W,1,12,1.0,0.0,M,0.0,M,,*7D
$GPGSA,A,3,01,02,03,04,05,06,07,08,09,10,11,12,1.0,1.0,1.0*30
$GPRMC,170430.691,A,3404.141,N,11819.108,W,038.9,090.0,250221,000.0,W*64
$GPGGA,170431.691,3404.141,N,11819.095,W,1,12,1.0,0.0,M,0.0,M,,*79
$GPGSA,A,3,01,02,03,04,05,06,07,08,09,10,11,12,1.0,1.0,1.0*30
$GPRMC,170431.691,A,3404.141,N,11819.095,W,038.9,090.0,250221,000.0,W*60
$GPGGA,170432.691,3404.141,N,11819.082,W,1,12,1.0,0.0,M,0.0,M,,*7C
$GPGSA,A,3,01,02,03,04,05,06,07,08,09,10,11,12,1.0,1.0,1.0*30
$GPRMC,170432.691,A,3404.141,N,11819.082,W,038.9,090.0,250221,000.0,W*65
$GPGGA,170433.691,3404.141,N,11819.069,W,1,12,1.0,0.0,M,0.0,M,,*78
$GPGSA,A,3,01,02,03,04,05,06,07,08,09,10,11,12,1.0,1.0,1.0*30
$GPRMC,170433.691,A,3404.141,N,11819.069,W,038.9,090.0,250221,000.0,W*61
$GPGGA,170434.691,3404.141,N,11819.056,W,1,12,1.0,0.0,M,0.0,M,,*73
$GPGSA,A,3,01,02,03,04,05,06,07,08,09,10,11,12,1.0,1.0,1.0*30
$GPRMC,170434.691,A,3404.141,N,11819.056,W,038.9,090.0,250221,000.0,W*6A
$GPGGA,170435.691,3404.141,N,11819.043,W,1,12,1.0,0.0,M,0.0,M,,*76
$GPGSA,A,3,01,02,03,04,05,06,07,08,09,10,11,12,1.0,1.0,1.0*30
$GPRMC,170435.691,A,3404.141,N,11819.043,W,038.9,090.0,250221,000.0,W*6F
$GPGGA,170436.691,3404.141,N,11819.030,W,1,12,1.0,0.0,M,0.0,M,,*71
$GPGSA,A,3,01,02,03,04,05,06,07,08,09,10,11,12,1.0,1.0,1.0*30
$GPRMC,170436.691,A,3404.141,N,11819.030,W,038.9,090.0,250221,000.0,W*68
$GPGGA,170437.691,3404.141,N,11819.017,W,1,12,1.0,0.0,M,0.0,M,,*75
$GPGSA,A,3,01,02,03,04,05,06,07,08,09,10,11,12,1.0,1.0,1.0*30
$GPRMC,170437.691,A,3404.141,N,11819.017,W,038.9,090.0,250221,000.0,W*6C
$GPGGA,170438.691,3404.141,N,11819.004,W,1,12,1.0,0.0,M,0.0,M,,*78
$GPGSA,A,3,01,02,03,04,05,06,07,08,09,10,11,12,1.0,1.0,1.0*30
$GPRMC,170438.691,A,3404.141,N,11819.004,W,038.9,090.0,250221,000.0,W*61
$GPGGA,170439.691,3404.141,N,11818.991,W,1,12,1.0,0.0,M,0.0,M,,*7D
$GPGSA,A,3,01,02,03,04,05,06,07,08,09,10,11,12,1.0,1.0,1.0*30
$GPRMC,170439.691,A,3404.141,N,11818.991,W,038.9,090.0,250221,000.0,W*64
$GPGGA,170440.691,3404.141,N,11818.978,W,1,12,1.0,0.0,M,0.0,M,,*74
$GPGSA,A,3,01,02,03,04,05,06,07,08,09,10,11,12,1.0,1.0,1.0*30
$GPRMC,170440.691,A,3404.141,N,11818.978,W,038.9,090.0,250221,000.0,W*6D
$GPGGA,170441.691,3404.141,N,11818.965,W,1,12,1.0,0.0,M,0.0,M,,*79
$GPGSA,A,3,01,02,03,04,05,06,07,08,09,10,11,12,1.0,1.0,1.0*30
$GPRMC,170441.691,A,3404.141,N,11818.965,W,038.9,090.0,250221,000.0,W*60
$GPGGA,170442.691,3404.141,N,11818.951,W,1,12,1.0,0.0,M,0.0,M,,*7D
$GPGSA,A,3,01,02,03,04,05,06,07,08,09,10,11,12,1.0,1.0,1.0*30
$GPRMC,170442.691,A,3404.141,N,11818.951,W,038.9,090.0,250221,000.0,W*64
$GPGGA,170443.691,3404.141,N,11818.938,W,1,12,1.0,0.0,M,0.0,M,,*73
$GPGSA,A,3,01,02,03,04,05,06,07,08,09,10,11,12,1.0,1.0,1.0*30
$GPRMC,170443.691,A,3404.141,N,11818.938,W,038.9,090.0,250221,000.0,W*6A
$GPGGA,170444.691,3404.141,N,11818.925,W,1,12,1.0,0.0,M,0.0,M,,*78
$GPGSA,A,3,01,02,03,04,05,06,07,08,09,10,11,12,1.0,1.0,1.0*30
$GPRMC,170444.691,A,3404.141,N,11818.925,W,038.9,090.0,250221,000.0,W*61
$GPGGA,170445.691,3404.141,N,11818.912,W,1,12,1.0,0.0,M,0.0,M,,*7D
$GPGSA,A,3,01,02,03,04,05,06,07,08,09,10,11,12,1.0,1.0,1.0*30
$GPRMC,170445.691,A,3404.141,N,11818.912,W,038.9,090.0,250221,000.0,W*64
$GPGGA,170446.691,3404.141,N,11818.899,W,1,12,1.0,0.0,M,0.0,M,,*7C
$GPGSA,A,3,01,02,03,04,05,06,07,08,09,10,11,12,1.0,1.0,1.0*30
$GPRMC,170446.691,A,3404.141,N,11818.899,W,038.9,090.0,250221,000.0,W*65
$GPGGA,170447.691,3404.141,N,11818.886,W,1,12,1.0,0.0,M,0.0,M,,*73
$GPGSA,A,3,01,02,03,04,05,06,07,08,09,10,11,12,1.0,1.0,1.0*30
$GPRMC,170447.691,A,3404.141,N,11818.886,W,038.9,090.0,250221,000.0,W*6A
$GPGGA,170448.691,3404.141,N,11818.873,W,1,12,1.0,0.0,M,0.0,M,,*76
$GPGSA,A,3,01,02,03,04,05,06,07,08,09,10,11,12,1.0,1.0,1.0*30
$GPRMC,170448.691,A,3404.141,N,11818.873,W,038.9,090.0,250221,000.0,W*6F
$GPGGA,170449.691,3404.141,N,11818.860,W,1,12,1.0,0.0,M,0.0,M,,*75
$GPGSA,A,3,01,02,03,04,05,06,07,08,09,10,11,12,1.0,1.0,1.0*30
$GPRMC,170449.691,A,3404.141,N,11818.860,W,038.9,090.0,250221,000.0,W*6C
$GPGGA,170450.691,3404.141,N,11818.847,W,1,12,1.0,0.0,M,0.0,M,,*78
$GPGSA,A,3,01,02,03,04,05,06,07,08,09,10,11,12,1.0,1.0,1.0*30
$GPRMC,170450.691,A,3404.141,N,11818.847,W,038.9,090.0,250221,000.0,W*61
$GPGGA,170451.691,3404.141,N,11818.834,W,1,12,1.0,0.0,M,0.0,M,,*7D
$GPGSA,A,3,01,02,03,04,05,06,07,08,09,10,11,12,1.0,1.0,1.0*30
$GPRMC,170451.691,A,3404.141,N,11818.834,W,038.9,090.0,250221,000.0,W*64
$GPGGA,170452.691,3404.141,N,11818.821,W,1,12,1.0,0.0,M,0.0,M,,*7A
$GPGSA,A,3,01,02,03,04,05,06,07,08,09,10,11,12,1.0,1.0,1.0*30
$GPRMC,170452.691,A,3404.141,N,11818.821,W,038.9,090.0,250221,000.0,W*63
$GPGGA,170453.691,3404.141,N,11818.808,W,1,12,1.0,0.0,M,0.0,M,,*70
$GPGSA,A,3,01,02,03,04,05,06,07,08,09,10,11,12,1.0,1.0,1.0*30
$GPRMC,170453.691,A,3404.141,N,11818.808,W,038.9,090.0,250221,000.0,W*69
$GPGGA,170454.691,3404.141,N,11818.795,W,1,12,1.0,0.0,M,0.0,M,,*7C
$GPGSA,A,3,01,02,03,04,05,06,07,08,09,10,11,12,1.0,1.0,1.0*30
$GPRMC,170454.691,A,3404.141,N,11818.795,W,038.9,090.0,250221,000.0,W*65
$GPGGA,170455.691,3404.141,N,11818.782,W,1,12,1.0,0.0,M,0.0,M,,*7B
$GPGSA,A,3,01,02,03,04,05,06,07,08,09,10,11,12,1.0,1.0,1.0*30
$GPRMC,170455.691,A,3404.141,N,11818.782,W,038.9,090.0,250221,000.0,W*62
$GPGGA,170456.691,3404.141,N,11818.769,W,1,12,1.0,0.0,M,0.0,M,,*7D
$GPGSA,A,3,01,02,03,04,05,06,07,08,09,10,11,12,1.0,1.0,1.0*30
$GPRMC,170456.691,A,3404.141,N,11818.769,W,038.9,090.0,250221,000.0,W*64
$GPGGA,170457.691,3404.141,N,11818.756,W,1,12,1.0,0.0,M,0.0,M,,*70
$GPGSA,A,3,01,02,03,04,05,06,07,08,09,10,11,12,1.0,1.0,1.0*30
$GPRMC,170457.691,A,3404.141,N,11818.756,W,038.9,090.0,250221,000.0,W*69
$GPGGA,170458.691,3404.141,N,11818.743,W,1,12,1.0,0.0,M,0.0,M,,*7B
$GPGSA,A,3,01,02,03,04,05,06,07,08,09,10,11,12,1.0,1.0,1.0*30
$GPRMC,170458.691,A,3404.141,N,11818.743,W,038.9,090.0,250221,000.0,W*62
$GPGGA,170459.691,3404.141,N,11818.730,W,1,12,1.0,0.0,M,0.0,M,,*7E
$GPGSA,A,3,01,02,03,04,05,06,07,08,09,10,11,12,1.0,1.0,1.0*30
$GPRMC,170459.691,A,3404.141,N,11818.730,W,038.9,090.0,250221,000.0,W*67
$GPGGA,170500.691,3404.141,N,11818.717,W,1,12,1.0,0.0,M,0.0,M,,*76
$GPGSA,A,3,01,02,03,04,05,06,07,08,09,10,11,12,1.0,1.0,1.0*30
$GPRMC,170500.691,A,3404.141,N,11818.717,W,038.9,090.0,250221,000.0,W*6F
$GPGGA,170501.691,3404.141,N,11818.704,W,1,12,1.0,0.0,M,0.0,M,,*75
$GPGSA,A,3,01,02,03,04,05,06,07,08,09,10,11,12,1.0,1.0,1.0*30
$GPRMC,170501.691,A,3404.141,N,11818.704,W,038.9,090.0,250221,000.0,W*6C
$GPGGA,170502.691,3404.141,N,11818.691,W,1,12,1.0,0.0,M,0.0,M,,*7B
$GPGSA,A,3,01,02,03,04,05,06,07,08,09,10,11,12,1.0,1.0,1.0*30
$GPRMC,170502.691,A,3404.141,N,11818.691,W,038.9,090.0,250221,000.0,W*62
$GPGGA,170503.691,3404.141,N,11818.678,W,1,12,1.0,0.0,M,0.0,M,,*7D
$GPGSA,A,3,01,02,03,04,05,06,07,08,09,10,11,12,1.0,1.0,1.0*30
$GPRMC,170503.691,A,3404.141,N,11818.678,W,038.9,090.0,250221,000.0,W*64
$GPGGA,170504.691,3404.141,N,11818.665,W,1,12,1.0,0.0,M,0.0,M,,*76
$GPGSA,A,3,01,02,03,04,05,06,07,08,09,10,11,12,1.0,1.0,1.0*30
$GPRMC,170504.691,A,3404.141,N,11818.665,W,038.9,090.0,250221,000.0,W*6F
$GPGGA,170505.691,3404.141,N,11818.652,W,1,12,1.0,0.0,M,0.0,M,,*73
$GPGSA,A,3,01,02,03,04,05,06,07,08,09,10,11,12,1.0,1.0,1.0*30
$GPRMC,170505.691,A,3404.141,N,11818.652,W,038.9,090.0,250221,000.0,W*6A
$GPGGA,170506.691,3404.141,N,11818.639,W,1,12,1.0,0.0,M,0.0,M,,*7D
$GPGSA,A,3,01,02,03,04,05,06,07,08,09,10,11,12,1.0,1.0,1.0*30
$GPRMC,170506.691,A,3404.141,N,11818.639,W,038.9,090.0,250221,000.0,W*64
$GPGGA,170507.691,3404.141,N,11818.626,W,1,12,1.0,0.0,M,0.0,M,,*72
$GPGSA,A,3,01,02,03,04,05,06,07,08,09,10,11,12,1.0,1.0,1.0*30
$GPRMC,170507.691,A,3404.141,N,11818.626,W,038.9,090.0,250221,000.0,W*6B
$GPGGA,170508.691,3404.141,N,11818.613,W,1,12,1.0,0.0,M,0.0,M,,*7B
$GPGSA,A,3,01,02,03,04,05,06,07,08,09,10,11,12,1.0,1.0,1.0*30
$GPRMC,170508.691,A,3404.141,N,11818.613,W,038.9,090.0,250221,000.0,W*62
$GPGGA,170509.691,3404.141,N,11818.600,W,1,12,1.0,0.0,M,0.0,M,,*78
$GPGSA,A,3,01,02,03,04,05,06,07,08,09,10,11,12,1.0,1.0,1.0*30
$GPRMC,170509.691,A,3404.141,N,11818.600,W,038.9,090.0,250221,000.0,W*61
$GPGGA,170510.691,3404.141,N,11818.587,W,1,12,1.0,0.0,M,0.0,M,,*7C
$GPGSA,A,3,01,02,03,04,05,06,07,08,09,10,11,12,1.0,1.0,1.0*30
$GPRMC,170510.691,A,3404.141,N,11818.587,W,038.9,090.0,250221,000.0,W*65
$GPGGA,170511.691,3404.141,N,11818.574,W,1,12,1.0,0.0,M,0.0,M,,*71
$GPGSA,A,3,01,02,03,04,05,06,07,08,09,10,11,12,1.0,1.0,1.0*30
$GPRMC,170511.691,A,3404.141,N,11818.574,W,038.9,090.0,250221,000.0,W*68
$GPGGA,170512.691,3404.141,N,11818.561,W,1,12,1.0,0.0,M,0.0,M,,*76
$GPGSA,A,3,01,02,03,04,05,06,07,08,09,10,11,12,1.0,1.0,1.0*30
$GPRMC,170512.691,A,3404.141,N,11818.561,W,038.9,090.0,250221,000.0,W*6F
$GPGGA,170513.691,3404.141,N,11818.548,W,1,12,1.0,0.0,M,0.0,M,,*7C
$GPGSA,A,3,01,02,03,04,05,06,07,08,09,10,11,12,1.0,1.0,1.0*30
$GPRMC,170513.691,A,3404.141,N,11818.548,W,038.9,359.8,250221,000.0,W*6B
$GPGGA,170514.691,3404.152,N,11818.548,W,1,12,1.0,0.0,M,0.0,M,,*79
$GPGSA,A,3,01,02,03,04,05,06,07,08,09,10,11,12,1.0,1.0,1.0*30
$GPRMC,170514.691,A,3404.152,N,11818.548,W,038.9,359.8,250221,000.0,W*6E
$GPGGA,170515.691,3404.162,N,11818.548,W,1,12,1.0,0.0,M,0.0,M,,*7B
$GPGSA,A,3,01,02,03,04,05,06,07,08,09,10,11,12,1.0,1.0,1.0*30
$GPRMC,170515.691,A,3404.162,N,11818.548,W,038.9,359.8,250221,000.0,W*6C
$GPGGA,170516.691,3404.173,N,11818.548,W,1,12,1.0,0.0,M,0.0,M,,*78
$GPGSA,A,3,01,02,03,04,05,06,07,08,09,10,11,12,1.0,1.0,1.0*30
$GPRMC,170516.691,A,3404.173,N,11818.548,W,038.9,359.8,250221,000.0,W*6F
$GPGGA,170517.691,3404.184,N,11818.548,W,1,12,1.0,0.0,M,0.0,M,,*71
$GPGSA,A,3,01,02,03,04,05,06,07,08,09,10,11,12,1.0,1.0,1.0*30
$GPRMC,170517.691,A,3404.184,N,11818.548,W,038.9,359.8,250221,000.0,W*66
$GPGGA,170518.691,3404.195,N,11818.548,W,1,12,1.0,0.0,M,0.0,M,,*7E
$GPGSA,A,3,01,02,03,04,05,06,07,08,09,10,11,12,1.0,1.0,1.0*30
$GPRMC,170518.691,A,3404.195,N,11818.548,W,038.9,359.8,250221,000.0,W*69
$GPGGA,170519.691,3404.206,N,11818.548,W,1,12,1.0,0.0,M,0.0,M,,*76
$GPGSA,A,3,01,02,03,04,05,06,07,08,09,10,11,12,1.0,1.0,1.0*30
$GPRMC,170519.691,A,3404.206,N,11818.548,W,038.9,359.8,250221,000.0,W*61
$GPGGA,170520.691,3404.216,N,11818.548,W,1,12,1.0,0.0,M,0.0,M,,*7D
$GPGSA,A,3,01,02,03,04,05,06,07,08,09,10,11,12,1.0,1.0,1.0*30
$GPRMC,170520.691,A,3404.216,N,11818.548,W,038.9,359.8,250221,000.0,W*6A
$GPGGA,170521.691,3404.227,N,11818.548,W,1,12,1.0,0.0,M,0.0,M,,*7E
$GPGSA,A,3,01,02,03,04,05,06,07,08,09,10,11,12,1.0,1.0,1.0*30
$GPRMC,170521.691,A,3404.227,N,11818.548,W,038.9,359.8,250221,000.0,W*69
$GPGGA,170522.691,3404.238,N,11818.548,W,1,12,1.0,0.0,M,0.0,M,,*73
$GPGSA,A,3,01,02,03,04,05,06,07,08,09,10,11,12,1.0,1.0,1.0*30
$GPRMC,170522.691,A,3404.238,N,11818.548,W,038.9,359.8,250221,000.0,W*64
$GPGGA,170523.691,3404.249,N,11818.548,W,1,12,1.0,0.0,M,0.0,M,,*74
$GPGSA,A,3,01,02,03,04,05,06,07,08,09,10,11,12,1.0,1.0,1.0*30
$GPRMC,170523.691,A,3404.249,N,11818.548,W,038.9,359.8,250221,000.0,W*63
$GPGGA,170524.691,3404.260,N,11818.548,W,1,12,1.0,0.0,M,0.0,M,,*78
$GPGSA,A,3,01,02,03,04,05,06,07,08,09,10,11,12,1.0,1.0,1.0*30
$GPRMC,170524.691,A,3404.260,N,11818.548,W,038.9,359.8,250221,000.0,W*6F
$GPGGA,170525.691,3404.270,N,11818.548,W,1,12,1.0,0.0,M,0.0,M,,*78
$GPGSA,A,3,01,02,03,04,05,06,07,08,09,10,11,12,1.0,1.0,1.0*30
$GPRMC,170525.691,A,3404.270,N,11818.548,W,038.9,359.8,250221,000.0,W*6F
$GPGGA,170526.691,3404.281,N,11818.548,W,1,12,1.0,0.0,M,0.0,M,,*75
$GPGSA,A,3,01,02,03,04,05,06,07,08,09,10,11,12,1.0,1.0,1.0*30
$GPRMC,170526.691,A,3404.281,N,11818.548,W,038.9,359.8,250221,000.0,W*62
$GPGGA,170527.691,3404.292,N,11818.548,W,1,12,1.0,0.0,M,0.0,M,,*76
$GPGSA,A,3,01,02,03,04,05,06,07,08,09,10,11,12,1.0,1.0,1.0*30
$GPRMC,170527.691,A,3404.292,N,11818.548,W,038.9,359.8,250221,000.0,W*61
$GPGGA,170528.691,3404.303,N,11818.548,W,1,12,1.0,0.0,M,0.0,M,,*70
$GPGSA,A,3,01,02,03,04,05,06,07,08,09,10,11,12,1.0,1.0,1.0*30
$GPRMC,170528.691,A,3404.303,N,11818.548,W,038.9,359.8,250221,000.0,W*67
$GPGGA,170529.691,3404.313,N,11818.548,W,1,12,1.0,0.0,M,0.0,M,,*70
$GPGSA,A,3,01,02,03,04,05,06,07,08,09,10,11,12,1.0,1.0,1.0*30
$GPRMC,170529.691,A,3404.313,N,11818.548,W,038.9,359.8,250221,000.0,W*67
$GPGGA,170530.691,3404.324,N,11818.548,W,1,12,1.0,0.0,M,0.0,M,,*7C
$GPGSA,A,3,01,02,03,04,05,06,07,08,09,10,11,12,1.0,1.0,1.0*30
$GPRMC,170530.691,A,3404.324,N,11818.548,W,038.9,359.8,250221,000.0,W*6B
$GPGGA,170531.691,3404.335,N,11818.548,W,1,12,1.0,0.0,M,0.0,M,,*7D
$GPGSA,A,3,01,02,03,04,05,06,07,08,09,10,11,12,1.0,1.0,1.0*30
$GPRMC,170531.691,A,3404.335,N,11818.548,W,038.9,359.8,250221,000.0,W*6A
$GPGGA,170532.691,3404.346,N,11818.548,W,1,12,1.0,0.0,M,0.0,M,,*7A
$GPGSA,A,3,01,02,03,04,05,06,07,08,09,10,11,12,1.0,1.0,1.0*30
$GPRMC,170532.691,A,3404.346,N,11818.548,W,038.9,359.8,250221,000.0,W*6D
$GPGGA,170533.691,3404.357,N,11818.548,W,1,12,1.0,0.0,M,0.0,M,,*7B
$GPGSA,A,3,01,02,03,04,05,06,07,08,09,10,11,12,1.0,1.0,1.0*30
$GPRMC,170533.691,A,3404.357,N,11818.548,W,038.9,359.8,250221,000.0,W*6C
$GPGGA,170534.691,3404.367,N,11818.548,W,1,12,1.0,0.0,M,0.0,M,,*7F
$GPGSA,A,3,01,02,03,04,05,06,07,08,09,10,11,12,1.0,1.0,1.0*30
$GPRMC,170534.691,A,3404.367,N,11818.548,W,038.9,359.8,250221,000.0,W*68
$GPGGA,170535.691,3404.378,N,11818.548,W,1,12,1.0,0.0,M,0.0,M,,*70
$GPGSA,A,3,01,02,03,04,05,06,07,08,09,10,11,12,1.0,1.0,1.0*30
$GPRMC,170535.691,A,3404.378,N,11818.548,W,038.9,359.8,250221,000.0,W*67
$GPGGA,170536.691,3404.389,N,11818.548,W,1,12,1.0,0.0,M,0.0,M,,*7D
$GPGSA,A,3,01,02,03,04,05,06,07,08,09,10,11,12,1.0,1.0,1.0*30
$GPRMC,170536.691,A,3404.389,N,11818.548,W,038.9,359.8,250221,000.0,W*6A
$GPGGA,170537.691,3404.400,N,11818.548,W,1,12,1.0,0.0,M,0.0,M,,*7A
$GPGSA,A,3,01,02,03,04,05,06,07,08,09,10,11,12,1.0,1.0,1.0*30
$GPRMC,170537.691,A,3404.400,N,11818.548,W,038.9,359.8,250221,000.0,W*6D
$GPGGA,170538.691,3404.411,N,11818.548,W,1,12,1.0,0.0,M,0.0,M,,*75
$GPGSA,A,3,01,02,03,04,05,06,07,08,09,10,11,12,1.0,1.0,1.0*30
$GPRMC,170538.691,A,3404.411,N,11818.548,W,038.9,359.8,250221,000.0,W*62
$GPGGA,170539.691,3404.421,N,11818.548,W,1,12,1.0,0.0,M,0.0,M,,*77
$GPGSA,A,3,01,02,03,04,05,06,07,08,09,10,11,12,1.0,1.0,1.0*30
$GPRMC,170539.691,A,3404.421,N,11818.548,W,038.9,359.8,250221,000.0,W*60
$GPGGA,170540.691,3404.432,N,11818.549,W,1,12,1.0,0.0,M,0.0,M,,*7A
$GPGSA,A,3,01,02,03,04,05,06,07,08,09,10,11,12,1.0,1.0,1.0*30
$GPRMC,170540.691,A,3404.432,N,11818.549,W,038.9,359.8,250221,000.0,W*6D
$GPGGA,170541.691,3404.443,N,11818.549,W,1,12,1.0,0.0,M,0.0,M,,*7D
$GPGSA,A,3,01,02,03,04,05,06,07,08,09,10,11,12,1.0,1.0,1.0*30
$GPRMC,170541.691,A,3404.443,N,11818.549,W,038.9,359.8,250221,000.0,W*6A
$GPGGA,170542.691,3404.454,N,11818.549,W,1,12,1.0,0.0,M,0.0,M,,*78
$GPGSA,A,3,01,02,03,04,05,06,07,08,09,10,11,12,1.0,1.0,1.0*30
$GPRMC,170542.691,A,3404.454,N,11818.549,W,038.9,359.8,250221,000.0,W*6F
$GPGGA,170543.691,3404.465,N,11818.549,W,1,12,1.0,0.0,M,0.0,M,,*7B
$GPGSA,A,3,01,02,03,04,05,06,07,08,09,10,11,12,1.0,1.0,1.0*30
$GPRMC,170543.691,A,3404.465,N,11818.549,W,038.9,359.8,250221,000.0,W*6C
$GPGGA,170544.691,3404.475,N,11818.549,W,1,12,1.0,0.0,M,0.0,M,,*7D
$GPGSA,A,3,01,02,03,04,05,06,07,08,09,10,11,12,1.0,1.0,1.0*30
$GPRMC,170544.691,A,3404.475,N,11818.549,W,038.9,359.8,250221,000.0,W*6A
$GPGGA,170545.691,3404.486,N,11818.549,W,1,12,1.0,0.0,M,0.0,M,,*70
$GPGSA,A,3,01,02,03,04,05,06,07,08,09,10,11,12,1.0,1.0,1.0*30
$GPRMC,170545.691,A,3404.486,N,11818.549,W,038.9,359.8,250221,000.0,W*67
$GPGGA,170546.691,3404.497,N,11818.549,W,1,12,1.0,0.0,M,0.0,M,,*73
$GPGSA,A,3,01,02,03,04,05,06,07,08,09,10,11,12,1.0,1.0,1.0*30
$GPRMC,170546.691,A,3404.497,N,11818.549,W,038.9,359.8,250221,000.0,W*64
$GPGGA,170547.691,3404.508,N,11818.549,W,1,12,1.0,0.0,M,0.0,M,,*75
$GPGSA,A,3,01,02,03,04,05,06,07,08,09,10,11,12,1.0,1.0,1.0*30
$GPRMC,170547.691,A,3404.508,N,11818.549,W,038.9,359.8,250221,000.0,W*62
$GPGGA,170548.691,3404.519,N,11818.549,W,1,12,1.0,0.0,M,0.0,M,,*7A
$GPGSA,A,3,01,02,03,04,05,06,07,08,09,10,11,12,1.0,1.0,1.0*30
$GPRMC,170548.691,A,3404.519,N,11818.549,W,038.9,359.8,250221,000.0,W*6D
$GPGGA,170549.691,3404.529,N,11818.549,W,1,12,1.0,0.0,M,0.0,M,,*78
$GPGSA,A,3,01,02,03,04,05,06,07,08,09,10,11,12,1.0,1.0,1.0*30
$GPRMC,170549.691,A,3404.529,N,11818.549,W,038.9,359.8,250221,000.0,W*6F
$GPGGA,170550.691,3404.540,N,11818.549,W,1,12,1.0,0.0,M,0.0,M,,*7F
$GPGSA,A,3,01,02,03,04,05,06,07,08,09,10,11,12,1.0,1.0,1.0*30
$GPRMC,170550.691,A,3404.540,N,11818.549,W,038.9,359.8,250221,000.0,W*68
$GPGGA,170551.691,3404.551,N,11818.549,W,1,12,1.0,0.0,M,0.0,M,,*7E
$GPGSA,A,3,01,02,03,04,05,06,07,08,09,10,11,12,1.0,1.0,1.0*30
$GPRMC,170551.691,A,3404.551,N,11818.549,W,038.9,359.8,250221,000.0,W*69
$GPGGA,170552.691,3404.562,N,11818.549,W,1,12,1.0,0.0,M,0.0,M,,*7D
$GPGSA,A,3,01,02,03,04,05,06,07,08,09,10,11,12,1.0,1.0,1.0*30
$GPRMC,170552.691,A,3404.562,N,11818.549,W,038.9,359.8,250221,000.0,W*6A
$GPGGA,170553.691,3404.572,N,11818.549,W,1,12,1.0,0.0,M,0.0,M,,*7D
$GPGSA,A,3,01,02,03,04,05,06,07,08,09,10,11,12,1.0,1.0,1.0*30
$GPRMC,170553.691,A,3404.572,N,11818.549,W,038.9,359.8,250221,000.0,W*6A
$GPGGA,170554.691,3404.583,N,11818.549,W,1,12,1.0,0.0,M,0.0,M,,*74
$GPGSA,A,3,01,02,03,04,05,06,07,08,09,10,11,12,1.0,1.0,1.0*30
$GPRMC,170554.691,A,3404.583,N,11818.549,W,038.9,359.8,250221,000.0,W*63
$GPGGA,170555.691,3404.594,N,11818.549,W,1,12,1.0,0.0,M,0.0,M,,*73
$GPGSA,A,3,01,02,03,04,05,06,07,08,09,10,11,12,1.0,1.0,1.0*30
$GPRMC,170555.691,A,3404.594,N,11818.549,W,038.9,359.8,250221,000.0,W*64
$GPGGA,170556.691,3404.605,N,11818.549,W,1,12,1.0,0.0,M,0.0,M,,*7B
$GPGSA,A,3,01,02,03,04,05,06,07,08,09,10,11,12,1.0,1.0,1.0*30
$GPRMC,170556.691,A,3404.605,N,11818.549,W,038.9,359.8,250221,000.0,W*6C
$GPGGA,170557.691,3404.616,N,11818.549,W,1,12,1.0,0.0,M,0.0,M,,*78
$GPGSA,A,3,01,02,03,04,05,06,07,08,09,10,11,12,1.0,1.0,1.0*30
$GPRMC,170557.691,A,3404.616,N,11818.549,W,038.9,359.8,250221,000.0,W*6F
$GPGGA,170558.691,3404.626,N,11818.549,W,1,12,1.0,0.0,M,0.0,M,,*74
$GPGSA,A,3,01,02,03,04,05,06,07,08,09,10,11,12,1.0,1.0,1.0*30
$GPRMC,170558.691,A,3404.626,N,11818.549,W,038.9,359.8,250221,000.0,W*63
$GPGGA,170559.691,3404.637,N,11818.549,W,1,12,1.0,0.0,M,0.0,M,,*75
$GPGSA,A,3,01,02,03,04,05,06,07,08,09,10,11,12,1.0,1.0,1.0*30
$GPRMC,170559.691,A,3404.637,N,11818.549,W,038.9,359.8,250221,000.0,W*62
$GPGGA,170600.691,3404.648,N,11818.549,W,1,12,1.0,0.0,M,0.0,M,,*72
$GPGSA,A,3,01,02,03,04,05,06,07,08,09,10,11,12,1.0,1.0,1.0*30
$GPRMC,170600.691,A,3404.648,N,11818.549,W,038.9,359.8,250221,000.0,W*65
$GPGGA,170601.691,3404.659,N,11818.549,W,1,12,1.0,0.0,M,0.0,M,,*73
$GPGSA,A,3,01,02,03,04,05,06,07,08,09,10,11,12,1.0,1.0,1.0*30
$GPRMC,170601.691,A,3404.659,N,11818.549,W,038.9,359.8,250221,000.0,W*64
$GPGGA,170602.691,3404.670,N,11818.549,W,1,12,1.0,0.0,M,0.0,M,,*7B
$GPGSA,A,3,01,02,03,04,05,06,07,08,09,10,11,12,1.0,1.0,1.0*30
$GPRMC,170602.691,A,3404.670,N,11818.549,W,038.9,359.8,250221,000.0,W*6C
$GPGGA,170603.691,3404.680,N,11818.549,W,1,12,1.0,0.0,M,0.0,M,,*75
$GPGSA,A,3,01,02,03,04,05,06,07,08,09,10,11,12,1.0,1.0,1.0*30
$GPRMC,170603.691,A,3404.680,N,11818.549,W,038.9,359.8,250221,000.0,W*62
$GPGGA,170604.691,3404.691,N,11818.549,W,1,12,1.0,0.0,M,0.0,M,,*72
$GPGSA,A,3,01,02,03,04,05,06,07,08,09,10,11,12,1.0,1.0,1.0*30
$GPRMC,170604.691,A,3404.691,N,11818.549,W,038.9,359.8,250221,000.0,W*65
$GPGGA,170605.691,3404.702,N,11818.549,W,1,12,1.0,0.0,M,0.0,M,,*78
$GPGSA,A,3,01,02,03,04,05,06,07,08,09,10,11,12,1.0,1.0,1.0*30
$GPRMC,170605.691,A,3404.702,N,11818.549,W,038.9,359.8,250221,000.0,W*6F
$GPGGA,170606.691,3404.713,N,11818.549,W,1,12,1.0,0.0,M,0.0,M,,*7B
$GPGSA,A,3,01,02,03,04,05,06,07,08,09,10,11,12,1.0,1.0,1.0*30
$GPRMC,170606.691,A,3404.713,N,11818.549,W,038.9,359.8,250221,000.0,W*6C
$GPGGA,170607.691,3404.724,N,11818.549,W,1,12,1.0,0.0,M,0.0,M,,*7E
$GPGSA,A,3,01,02,03,04,05,06,07,08,09,10,11,12,1.0,1.0,1.0*30
$GPRMC,170607.691,A,3404.724,N,11818.549,W,038.9,359.8,250221,000.0,W*69
$GPGGA,170608.691,3404.734,N,11818.549,W,1,12,1.0,0.0,M,0.0,M,,*70
$GPGSA,A,3,01,02,03,04,05,06,07,08,09,10,11,12,1.0,1.0,1.0*30
$GPRMC,170608.691,A,3404.734,N,11818.549,W,038.9,359.8,250221,000.0,W*67
$GPGGA,170609.691,3404.745,N,11818.549,W,1,12,1.0,0.0,M,0.0,M,,*77
$GPGSA,A,3,01,02,03,04,05,06,07,08,09,10,11,12,1.0,1.0,1.0*30
$GPRMC,170609.691,A,3404.745,N,11818.549,W,038.9,359.8,250221,000.0,W*60
$GPGGA,170610.691,3404.756,N,11818.549,W,1,12,1.0,0.0,M,0.0,M,,*7D
$GPGSA,A,3,01,02,03,04,05,06,07,08,09,10,11,12,1.0,1.0,1.0*30
$GPRMC,170610.691,A,3404.756,N,11818.549,W,038.9,359.8,250221,000.0,W*6A
$GPGGA,170611.691,3404.767,N,11818.550,W,1,12,1.0,0.0,M,0.0,M,,*76
$GPGSA,A,3,01,02,03,04,05,06,07,08,09,10,11,12,1.0,1.0,1.0*30
$GPRMC,170611.691,A,3404.767,N,11818.550,W,038.9,359.8,250221,000.0,W*61
$GPGGA,170612.691,3404.778,N,11818.550,W,1,12,1.0,0.0,M,0.0,M,,*7B
$GPGSA,A,3,01,02,03,04,05,06,07,08,09,10,11,12,1.0,1.0,1.0*30
$GPRMC,170612.691,A,3404.778,N,11818.550,W,038.9,359.8,250221,000.0,W*6C
$GPGGA,170613.691,3404.788,N,11818.550,W,1,12,1.0,0.0,M,0.0,M,,*75
$GPGSA,A,3,01,02,03,04,05,06,07,08,09,10,11,12,1.0,1.0,1.0*30
$GPRMC,170613.691,A,3404.788,N,11818.550,W,038.9,359.8,250221,000.0,W*62
$GPGGA,170614.691,3404.799,N,11818.550,W,1,12,1.0,0.0,M,0.0,M,,*72
$GPGSA,A,3,01,02,03,04,05,06,07,08,09,10,11,12,1.0,1.0,1.0*30
$GPRMC,170614.691,A,3404.799,N,11818.550,W,038.9,359.8,250221,000.0,W*65
$GPGGA,170615.691,3404.810,N,11818.550,W,1,12,1.0,0.0,M,0.0,M,,*7D
$GPGSA,A,3,01,02,03,04,05,06,07,08,09,10,11,12,1.0,1.0,1.0*30
$GPRMC,170615.691,A,3404.810,N,11818.550,W,038.9,359.8,250221,000.0,W*6A
$GPGGA,170616.691,3404.821,N,11818.550,W,1,12,1.0,0.0,M,0.0,M,,*7C
$GPGSA,A,3,01,02,03,04,05,06,07,08,09,10,11,12,1.0,1.0,1.0*30
$GPRMC,170616.691,A,3404.821,N,11818.550,W,038.9,359.8,250221,000.0,W*6B
$GPGGA,170617.691,3404.832,N,11818.550,W,1,12,1.0,0.0,M,0.0,M,,*7F
$GPGSA,A,3,01,02,03,04,05,06,07,08,09,10,11,12,1.0,1.0,1.0*30
$GPRMC,170617.691,A,3404.832,N,11818.550,W,038.9,359.8,250221,000.0,W*68
$GPGGA,170618.691,3404.842,N,11818.550,W,1,12,1.0,0.0,M,0.0,M,,*77
$GPGSA,A,3,01,02,03,04,05,06,07,08,09,10,11,12,1.0,1.0,1.0*30
$GPRMC,170618.691,A,3404.842,N,11818.550,W,038.9,359.8,250221,000.0,W*60
$GPGGA,170619.691,3404.853,N,11818.550,W,1,12,1.0,0.0,M,0.0,M,,*76
$GPGSA,A,3,01,02,03,04,05,06,07,08,09,10,11,12,1.0,1.0,1.0*30
$GPRMC,170619.691,A,3404.853,N,11818.550,W,038.9,359.8,250221,000.0,W*61
$GPGGA,170620.691,3404.864,N,11818.550,W,1,12,1.0,0.0,M,0.0,M,,*78
$GPGSA,A,3,01,02,03,04,05,06,07,08,09,10,11,12,1.0,1.0,1.0*30
$GPRMC,170620.691,A,3404.864,N,11818.550,W,038.9,359.8,250221,000.0,W*6F
$GPGGA,170621.691,3404.875,N,11818.550,W,1,12,1.0,0.0,M,0.0,M,,*79
$GPGSA,A,3,01,02,03,04,05,06,07,08,09,10,11,12,1.0,1.0,1.0*30
$GPRMC,170621.691,A,3404.875,N,11818.550,W,038.9,359.8,250221,000.0,W*6E
$GPGGA,170622.691,3404.885,N,11818.550,W,1,12,1.0,0.0,M,0.0,M,,*75
$GPGSA,A,3,01,02,03,04,05,06,07,08,09,10,11,12,1.0,1.0,1.0*30
$GPRMC,170622.691,A,3404.885,N,11818.550,W,038.9,359.8,250221,000.0,W*62
$GPGGA,170623.691,3404.896,N,11818.550,W,1,12,1.0,0.0,M,0.0,M,,*76
$GPGSA,A,3,01,02,03,04,05,06,07,08,09,10,11,12,1.0,1.0,1.0*30
$GPRMC,170623.691,A,3404.896,N,11818.550,W,038.9,359.8,250221,000.0,W*61
$GPGGA,170624.691,3404.907,N,11818.550,W,1,12,1.0,0.0,M,0.0,M,,*78
$GPGSA,A,3,01,02,03,04,05,06,07,08,09,10,11,12,1.0,1.0,1.0*30
$GPRMC,170624.691,A,3404.907,N,11818.550,W,038.9,359.8,250221,000.0,W*6F
$GPGGA,170625.691,3404.918,N,11818.550,W,1,12,1.0,0.0,M,0.0,M,,*77
$GPGSA,A,3,01,02,03,04,05,06,07,08,09,10,11,12,1.0,1.0,1.0*30
$GPRMC,170625.691,A,3404.918,N,11818.550,W,038.9,359.8,250221,000.0,W*60
$GPGGA,170626.691,3404.929,N,11818.550,W,1,12,1.0,0.0,M,0.0,M,,*76
$GPGSA,A,3,01,02,03,04,05,06,07,08,09,10,11,12,1.0,1.0,1.0*30
$GPRMC,170626.691,A,3404.929,N,11818.550,W,038.9,359.8,250221,000.0,W*61
$GPGGA,170627.691,3404.939,N,11818.550,W,1,12,1.0,0.0,M,0.0,M,,*76
$GPGSA,A,3,01,02,03,04,05,06,07,08,09,10,11,12,1.0,1.0,1.0*30
$GPRMC,170627.691,A,3404.939,N,11818.550,W,038.9,359.8,250221,000.0,W*61
$GPGGA,170628.691,3404.950,N,11818.550,W,1,12,1.0,0.0,M,0.0,M,,*76
$GPGSA,A,3,01,02,03,04,05,06,07,08,09,10,11,12,1.0,1.0,1.0*30
$GPRMC,170628.691,A,3404.950,N,11818.550,W,038.9,359.8,250221,000.0,W*61
$GPGGA,170629.691,3404.961,N,11818.550,W,1,12,1.0,0.0,M,0.0,M,,*75
$GPGSA,A,3,01,02,03,04,05,06,07,08,09,10,11,12,1.0,1.0,1.0*30
$GPRMC,170629.691,A,3404.961,N,11818.550,W,038.9,359.8,250221,000.0,W*62
$GPGGA,170630.691,3404.972,N,11818.550,W,1,12,1.0,0.0,M,0.0,M,,*7F
$GPGSA,A,3,01,02,03,04,05,06,07,08,09,10,11,12,1.0,1.0,1.0*30
$GPRMC,170630.691,A,3404.972,N,11818.550,W,038.9,359.8,250221,000.0,W*68
$GPGGA,170631.691,3404.983,N,11818.550,W,1,12,1.0,0.0,M,0.0,M,,*70
$GPGSA,A,3,01,02,03,04,05,06,07,08,09,10,11,12,1.0,1.0,1.0*30
$GPRMC,170631.691,A,3404.983,N,11818.550,W,038.9,359.8,250221,000.0,W*67
$GPGGA,170632.691,3404.993,N,11818.550,W,1,12,1.0,0.0,M,0.0,M,,*72
$GPGSA,A,3,01,02,03,04,05,06,07,08,09,10,11,12,1.0,1.0,1.0*30
$GPRMC,170632.691,A,3404.993,N,11818.550,W,038.9,359.8,250221,000.0,W*65
$GPGGA,170633.691,3405.004,N,11818.550,W,1,12,1.0,0.0,M,0.0,M,,*75
$GPGSA,A,3,01,02,03,04,05,06,07,08,09,10,11,12,1.0,1.0,1.0*30
$GPRMC,170633.691,A,3405.004,N,11818.550,W,038.9,359.8,250221,000.0,W*62
$GPGGA,170634.691,3405.015,N,11818.550,W,1,12,1.0,0.0,M,0.0,M,,*72
$GPGSA,A,3,01,02,03,04,05,06,07,08,09,10,11,12,1.0,1.0,1.0*30
$GPRMC,170634.691,A,3405.015,N,11818.550,W,038.9,359.8,250221,000.0,W*65
$GPGGA,170635.691,3405.026,N,11818.550,W,1,12,1.0,0.0,M,0.0,M,,*73
$GPGSA,A,3,01,02,03,04,05,06,07,08,09,10,11,12,1.0,1.0,1.0*30
$GPRMC,170635.691,A,3405.026,N,11818.550,W,038.9,359.8,250221,000.0,W*64
$GPGGA,170636.691,3405.037,N,11818.550,W,1,12,1.0,0.0,M,0.0,M,,*70
$GPGSA,A,3,01,02,03,04,05,06,07,08,09,10,11,12,1.0,1.0,1.0*30
$GPRMC,170636.691,A,3405.037,N,11818.550,W,038.9,359.8,250221,000.0,W*67
$GPGGA,170637.691,3405.047,N,11818.550,W,1,12,1.0,0.0,M,0.0,M,,*76
$GPGSA,A,3,01,02,03,04,05,06,07,08,09,10,11,12,1.0,1.0,1.0*30
$GPRMC,170637.691,A,3405.047,N,11818.550,W,038.9,359.8,250221,000.0,W*61
$GPGGA,170638.691,3405.058,N,11818.550,W,1,12,1.0,0.0,M,0.0,M,,*77
$GPGSA,A,3,01,02,03,04,05,06,07,08,09,10,11,12,1.0,1.0,1.0*30
$GPRMC,170638.691,A,3405.058,N,11818.550,W,038.9,359.8,250221,000.0,W*60
$GPGGA,170639.691,3405.069,N,11818.550,W,1,12,1.0,0.0,M,0.0,M,,*74
$GPGSA,A,3,01,02,03,04,05,06,07,08,09,10,11,12,1.0,1.0,1.0*30
$GPRMC,170639.691,A,3405.069,N,11818.550,W,038.9,359.8,250221,000.0,W*63
$GPGGA,170640.691,3405.080,N,11818.550,W,1,12,1.0,0.0,M,0.0,M,,*7D
$GPGSA,A,3,01,02,03,04,05,06,07,08,09,10,11,12,1.0,1.0,1.0*30
$GPRMC,170640.691,A,3405.080,N,11818.550,W,038.9,359.8,250221,000.0,W*6A
$GPGGA,170641.691,3405.091,N,11818.550,W,1,12,1.0,0.0,M,0.0,M,,*7C
$GPGSA,A,3,01,02,03,04,05,06,07,08,09,10,11,12,1.0,1.0,1.0*30
$GPRMC,170641.691,A,3405.091,N,11818.550,W,038.9,359.8,250221,000.0,W*6B
$GPGGA,170642.691,3405.101,N,11818.551,W,1,12,1.0,0.0,M,0.0,M,,*76
$GPGSA,A,3,01,02,03,04,05,06,07,08,09,10,11,12,1.0,1.0,1.0*30
$GPRMC,170642.691,A,3405.101,N,11818.551,W,038.9,359.8,250221,000.0,W*61
$GPGGA,170643.691,3405.112,N,11818.551,W,1,12,1.0,0.0,M,0.0,M,,*75
$GPGSA,A,3,01,02,03,04,05,06,07,08,09,10,11,12,1.0,1.0,1.0*30
$GPRMC,170643.691,A,3405.112,N,11818.551,W,038.9,359.8,250221,000.0,W*62
$GPGGA,170644.691,3405.123,N,11818.551,W,1,12,1.0,0.0,M,0.0,M,,*70
$GPGSA,A,3,01,02,03,04,05,06,07,08,09,10,11,12,1.0,1.0,1.0*30
$GPRMC,170644.691,A,3405.123,N,11818.551,W,038.9,359.8,250221,000.0,W*67
$GPGGA,170645.691,3405.134,N,11818.551,W,1,12,1.0,0.0,M,0.0,M,,*77
$GPGSA,A,3,01,02,03,04,05,06,07,08,09,10,11,12,1.0,1.0,1.0*30
$GPRMC,170645.691,A,3405.134,N,11818.551,W,038.9,359.8,250221,000.0,W*60
$GPGGA,170646.691,3405.144,N,11818.551,W,1,12,1.0,0.0,M,0.0,M,,*73
$GPGSA,A,3,01,02,03,04,05,06,07,08,09,10,11,12,1.0,1.0,1.0*30
$GPRMC,170646.691,A,3405.144,N,11818.551,W,038.9,359.8,250221,000.0,W*64
$GPGGA,170647.691,3405.155,N,11818.551,W,1,12,1.0,0.0,M,0.0,M,,*72
$GPGSA,A,3,01,02,03,04,05,06,07,08,09,10,11,12,1.0,1.0,1.0*30
$GPRMC,170647.691,A,3405.155,N,11818.551,W,038.9,359.8,250221,000.0,W*65
$GPGGA,170648.691,3405.166,N,11818.551,W,1,12,1.0,0.0,M,0.0,M,,*7D
$GPGSA,A,3,01,02,03,04,05,06,07,08,09,10,11,12,1.0,1.0,1.0*30
$GPRMC,170648.691,A,3405.166,N,11818.551,W,038.9,359.8,250221,000.0,W*6A
$GPGGA,170649.691,3405.177,N,11818.551,W,1,12,1.0,0.0,M,0.0,M,,*7C
$GPGSA,A,3,01,02,03,04,05,06,07,08,09,10,11,12,1.0,1.0,1.0*30
$GPRMC,170649.691,A,3405.177,N,11818.551,W,038.9,359.8,250221,000.0,W*6B
$GPGGA,170650.691,3405.188,N,11818.551,W,1,12,1.0,0.0,M,0.0,M,,*74
$GPGSA,A,3,01,02,03,04,05,06,07,08,09,10,11,12,1.0,1.0,1.0*30
$GPRMC,170650.691,A,3405.188,N,11818.551,W,038.9,359.8,250221,000.0,W*63
$GPGGA,170651.691,3405.198,N,11818.551,W,1,12,1.0,0.0,M,0.0,M,,*74
$GPGSA,A,3,01,02,03,04,05,06,07,08,09,10,11,12,1.0,1.0,1.0*30
$GPRMC,170651.691,A,3405.198,N,11818.551,W,038.9,359.8,250221,000.0,W*63
$GPGGA,170652.691,3405.209,N,11818.551,W,1,12,1.0,0.0,M,0.0,M,,*7C
$GPGSA,A,3,01,02,03,04,05,06,07,08,09,10,11,12,1.0,1.0,1.0*30
$GPRMC,170652.691,A,3405.209,N,11818.551,W,038.9,359.8,250221,000.0,W*6B
$GPGGA,170653.691,3405.220,N,11818.551,W,1,12,1.0,0.0,M,0.0,M,,*76
$GPGSA,A,3,01,02,03,04,05,06,07,08,09,10,11,12,1.0,1.0,1.0*30
$GPRMC,170653.691,A,3405.220,N,11818.551,W,038.9,359.8,250221,000.0,W*61
$GPGGA,170654.691,3405.231,N,11818.551,W,1,12,1.0,0.0,M,0.0,M,,*71
$GPGSA,A,3,01,02,03,04,05,06,07,08,09,10,11,12,1.0,1.0,1.0*30
$GPRMC,170654.691,A,3405.231,N,11818.551,W,038.9,359.8,250221,000.0,W*66
$GPGGA,170655.691,3405.242,N,11818.551,W,1,12,1.0,0.0,M,0.0,M,,*74
$GPGSA,A,3,01,02,03,04,05,06,07,08,09,10,11,12,1.0,1.0,1.0*30
$GPRMC,170655.691,A,3405.242,N,11818.551,W,038.9,359.8,250221,000.0,W*63
$GPGGA,170656.691,3405.252,N,11818.551,W,1,12,1.0,0.0,M,0.0,M,,*76
$GPGSA,A,3,01,02,03,04,05,06,07,08,09,10,11,12,1.0,1.0,1.0*30
$GPRMC,170656.691,A,3405.252,N,11818.551,W,038.9,359.8,250221,000.0,W*61
$GPGGA,170657.691,3405.263,N,11818.551,W,1,12,1.0,0.0,M,0.0,M,,*75
$GPGSA,A,3,01,02,03,04,05,06,07,08,09,10,11,12,1.0,1.0,1.0*30
$GPRMC,170657.691,A,3405.263,N,11818.551,W,038.9,359.8,250221,000.0,W*62
$GPGGA,170658.691,3405.274,N,11818.551,W,1,12,1.0,0.0,M,0.0,M,,*7C
$GPGSA,A,3,01,02,03,04,05,06,07,08,09,10,11,12,1.0,1.0,1.0*30
$GPRMC,170658.691,A,3405.274,N,11818.551,W,038.9,359.8,250221,000.0,W*6B
$GPGGA,170659.691,3405.285,N,11818.551,W,1,12,1.0,0.0,M,0.0,M,,*73
$GPGSA,A,3,01,02,03,04,05,06,07,08,09,10,11,12,1.0,1.0,1.0*30
$GPRMC,170659.691,A,3405.285,N,11818.551,W,038.9,359.8,250221,000.0,W*64
$GPGGA,170700.691,3405.296,N,11818.551,W,1,12,1.0,0.0,M,0.0,M,,*7C
$GPGSA,A,3,01,02,03,04,05,06,07,08,09,10,11,12,1.0,1.0,1.0*30
$GPRMC,170700.691,A,3405.296,N,11818.551,W,038.9,359.8,250221,000.0,W*6B
$GPGGA,170701.691,3405.306,N,11818.551,W,1,12,1.0,0.0,M,0.0,M,,*75
$GPGSA,A,3,01,02,03,04,05,06,07,08,09,10,11,12,1.0,1.0,1.0*30
$GPRMC,170701.691,A,3405.306,N,11818.551,W,038.9,359.8,250221,000.0,W*62
$GPGGA,170702.691,3405.317,N,11818.551,W,1,12,1.0,0.0,M,0.0,M,,*76
$GPGSA,A,3,01,02,03,04,05,06,07,08,09,10,11,12,1.0,1.0,1.0*30
$GPRMC,170702.691,A,3405.317,N,11818.551,W,038.9,359.8,250221,000.0,W*61
$GPGGA,170703.691,3405.328,N,11818.551,W,1,12,1.0,0.0,M,0.0,M,,*7B
$GPGSA,A,3,01,02,03,04,05,06,07,08,09,10,11,12,1.0,1.0,1.0*30
$GPRMC,170703.691,A,3405.328,N,11818.551,W,038.9,359.8,250221,000.0,W*6C
$GPGGA,170704.691,3405.339,N,11818.551,W,1,12,1.0,0.0,M,0.0,M,,*7C
$GPGSA,A,3,01,02,03,04,05,06,07,08,09,10,11,12,1.0,1.0,1.0*30
$GPRMC,170704.691,A,3405.339,N,11818.551,W,038.9,359.8,250221,000.0,W*6B
$GPGGA,170705.691,3405.350,N,11818.551,W,1,12,1.0,0.0,M,0.0,M,,*72
$GPGSA,A,3,01,02,03,04,05,06,07,08,09,10,11,12,1.0,1.0,1.0*30
$GPRMC,170705.691,A,3405.350,N,11818.551,W,038.9,359.8,250221,000.0,W*65
$GPGGA,170706.691,3405.360,N,11818.551,W,1,12,1.0,0.0,M,0.0,M,,*72
$GPGSA,A,3,01,02,03,04,05,06,07,08,09,10,11,12,1.0,1.0,1.0*30
$GPRMC,170706.691,A,3405.360,N,11818.551,W,038.9,359.8,250221,000.0,W*65
$GPGGA,170707.691,3405.371,N,11818.551,W,1,12,1.0,0.0,M,0.0,M,,*73
$GPGSA,A,3,01,02,03,04,05,06,07,08,09,10,11,12,1.0,1.0,1.0*30
$GPRMC,170707.691,A,3405.371,N,11818.551,W,038.9,359.8,250221,000.0,W*64
$GPGGA,170708.691,3405.382,N,11818.551,W,1,12,1.0,0.0,M,0.0,M,,*70
$GPGSA,A,3,01,02,03,04,05,06,07,08,09,10,11,12,1.0,1.0,1.0*30
$GPRMC,170708.691,A,3405.382,N,11818.551,W,038.9,359.8,250221,000.0,W*67
$GPGGA,170709.691,3405.393,N,11818.551,W,1,12,1.0,0.0,M,0.0,M,,*71
$GPGSA,A,3,01,02,03,04,05,06,07,08,09,10,11,12,1.0,1.0,1.0*30
$GPRMC,170709.691,A,3405.393,N,11818.551,W,038.9,359.8,250221,000.0,W*66
$GPGGA,170710.691,3405.403,N,11818.551,W,1,12,1.0,0.0,M,0.0,M,,*77
$GPGSA,A,3,01,02,03,04,05,06,07,08,09,10,11,12,1.0,1.0,1.0*30
$GPRMC,170710.691,A,3405.403,N,11818.551,W,038.9,359.8,250221,000.0,W*60
$GPGGA,170711.691,3405.414,N,11818.551,W,1,12,1.0,0.0,M,0.0,M,,*70
$GPGSA,A,3,01,02,03,04,05,06,07,08,09,10,11,12,1.0,1.0,1.0*30
$GPRMC,170711.691,A,3405.414,N,11818.551,W,038.9,359.8,250221,000.0,W*67
$GPGGA,170712.691,3405.425,N,11818.551,W,1,12,1.0,0.0,M,0.0,M,,*71
$GPGSA,A,3,01,02,03,04,05,06,07,08,09,10,11,12,1.0,1.0,1.0*30
$GPRMC,170712.691,A,3405.425,N,11818.551,W,038.9,359.8,250221,000.0,W*66
$GPGGA,170713.691,3405.436,N,11818.552,W,1,12,1.0,0.0,M,0.0,M,,*71
$GPGSA,A,3,01,02,03,04,05,06,07,08,09,10,11,12,1.0,1.0,1.0*30
$GPRMC,170713.691,A,3405.436,N,11818.552,W,038.9,270.0,250221,000.0,W*64
$GPGGA,170714.691,3405.436,N,11818.565,W,1,12,1.0,0.0,M,0.0,M,,*72
$GPGSA,A,3,01,02,03,04,05,06,07,08,09,10,11,12,1.0,1.0,1.0*30
$GPRMC,170714.691,A,3405.436,N,11818.565,W,038.9,270.0,250221,000.0,W*67
$GPGGA,170715.691,3405.436,N,11818.578,W,1,12,1.0,0.0,M,0.0,M,,*7F
$GPGSA,A,3,01,02,03,04,05,06,07,08,09,10,11,12,1.0,1.0,1.0*30
$GPRMC,170715.691,A,3405.436,N,11818.578,W,038.9,270.0,250221,000.0,W*6A
$GPGGA,170716.691,3405.436,N,11818.591,W,1,12,1.0,0.0,M,0.0,M,,*7B
$GPGSA,A,3,01,02,03,04,05,06,07,08,09,10,11,12,1.0,1.0,1.0*30
$GPRMC,170716.691,A,3405.436,N,11818.591,W,038.9,270.0,250221,000.0,W*6E
$GPGGA,170717.691,3405.436,N,11818.604,W,1,12,1.0,0.0,M,0.0,M,,*75
$GPGSA,A,3,01,02,03,04,05,06,07,08,09,10,11,12,1.0,1.0,1.0*30
$GPRMC,170717.691,A,3405.436,N,11818.604,W,038.9,270.0,250221,000.0,W*60
$GPGGA,170718.691,3405.436,N,11818.617,W,1,12,1.0,0.0,M,0.0,M,,*78
$GPGSA,A,3,01,02,03,04,05,06,07,08,09,10,11,12,1.0,1.0,1.0*30
$GPRMC,170718.691,A,3405.436,N,11818.617,W,038.9,270.0,250221,000.0,W*6D
$GPGGA,170719.691,3405.436,N,11818.630,W,1,12,1.0,0.0,M,0.0,M,,*7C
$GPGSA,A,3,01,02,03,04,05,06,07,08,09,10,11,12,1.0,1.0,1.0*30
$GPRMC,170719.691,A,3405.436,N,11818.630,W,038.9,270.0,250221,000.0,W*69
$GPGGA,170720.691,3405.436,N,11818.643,W,1,12,1.0,0.0,M,0.0,M,,*72
$GPGSA,A,3,01,02,03,04,05,06,07,08,09,10,11,12,1.0,1.0,1.0*30
$GPRMC,170720.691,A,3405.436,N,11818.643,W,038.9,270.0,250221,000.0,W*67
$GPGGA,170721.691,3405.436,N,11818.656,W,1,12,1.0,0.0,M,0.0,M,,*77
$GPGSA,A,3,01,02,03,04,05,06,07,08,09,10,11,12,1.0,1.0,1.0*30
$GPRMC,170721.691,A,3405.436,N,11818.656,W,038.9,270.0,250221,000.0,W*62
$GPGGA,170722.691,3405.436,N,11818.669,W,1,12,1.0,0.0,M,0.0,M,,*78
$GPGSA,A,3,01,02,03,04,05,06,07,08,09,10,11,12,1.0,1.0,1.0*30
$GPRMC,170722.691,A,3405.436,N,11818.669,W,038.9,270.0,250221,000.0,W*6D
$GPGGA,170723.691,3405.436,N,11818.682,W,1,12,1.0,0.0,M,0.0,M,,*7C
$GPGSA,A,3,01,02,03,04,05,06,07,08,09,10,11,12,1.0,1.0,1.0*30
$GPRMC,170723.691,A,3405.436,N,11818.682,W,038.9,270.0,250221,000.0,W*69
$GPGGA,170724.691,3405.436,N,11818.695,W,1,12,1.0,0.0,M,0.0,M,,*7D
$GPGSA,A,3,01,02,03,04,05,06,07,08,09,10,11,12,1.0,1.0,1.0*30
$GPRMC,170724.691,A,3405.436,N,11818.695,W,038.9,270.0,250221,000.0,W*68
$GPGGA,170725.691,3405.436,N,11818.708,W,1,12,1.0,0.0,M,0.0,M,,*79
$GPGSA,A,3,01,02,03,04,05,06,07,08,09,10,11,12,1.0,1.0,1.0*30
$GPRMC,170725.691,A,3405.436,N,11818.708,W,038.9,270.0,250221,000.0,W*6C
$GPGGA,170726.691,3405.436,N,11818.721,W,1,12,1.0,0.0,M,0.0,M,,*71
$GPGSA,A,3,01,02,03,04,05,06,07,08,09,10,11,12,1.0,1.0,1.0*30
$GPRMC,170726.691,A,3405.436,N,11818.721,W,038.9,270.0,250221,000.0,W*64
$GPGGA,170727.691,3405.436,N,11818.734,W,1,12,1.0,0.0,M,0.0,M,,*74
$GPGSA,A,3,01,02,03,04,05,06,07,08,09,10,11,12,1.0,1.0,1.0*30
$GPRMC,170727.691,A,3405.436,N,11818.734,W,038.9,270.0,250221,000.0,W*61
$GPGGA,170728.691,3405.436,N,11818.747,W,1,12,1.0,0.0,M,0.0,M,,*7F
$GPGSA,A,3,01,02,03,04,05,06,07,08,09,10,11,12,1.0,1.0,1.0*30
$GPRMC,170728.691,A,3405.436,N,11818.747,W,038.9,270.0,250221,000.0,W*6A
$GPGGA,170729.691,3405.436,N,11818.760,W,1,12,1.0,0.0,M,0.0,M,,*7B
$GPGSA,A,3,01,02,03,04,05,06,07,08,09,10,11,12,1.0,1.0,1.0*30
$GPRMC,170729.691,A,3405.436,N,11818.760,W,038.9,270.0,250221,000.0,W*6E
